DateTime,Type,UTC_Time,Status,Latitude,Lat_Hemisphere,Longitude,Long_Hemisphere,Speed_Over_Ground,Course_Over_Ground,Date,Magnetic_Variation,Variation_Hemisphere,Mode,Checksum
2024-07-24 03:11:41,$GNRMC,031141.60,A,3729.879389,N,12701.700294,E,8.3,60.3,240724,9.0,W,A,V*75
2024-07-24 03:11:43,$GNRMC,031143.00,A,3729.881829,N,12701.703513,E,7.4,60.1,240724,9.0,W,A,V*76
2024-07-24 03:11:44,$GNRMC,031144.00,A,3729.883336,N,12701.706214,E,9.1,65.1,240724,9.0,W,A,V*7D
2024-07-24 03:11:45,$GNRMC,031145.00,A,3729.885161,N,12701.709860,E,11.3,63.8,240724,9.0,W,A,V*48
2024-07-24 03:11:46,$GNRMC,031146.00,A,3729.887265,N,12701.713928,E,13.2,66.5,240724,9.0,W,A,V*43
2024-07-24 03:11:47,$GNRMC,031147.00,A,3729.888944,N,12701.717874,E,11.8,68.6,240724,9.0,W,A,V*4C
2024-07-24 03:11:48,$GNRMC,031148.00,A,3729.890676,N,12701.721774,E,13.2,66.0,240724,9.0,W,A,V*4E
2024-07-24 03:11:49,$GNRMC,031149.00,A,3729.892781,N,12701.726449,E,15.9,68.9,240724,9.0,W,A,V*44
2024-07-24 03:11:50,$GNRMC,031150.00,A,3729.895295,N,12701.731983,E,18.7,62.2,240724,9.0,W,A,V*44
2024-07-24 03:11:51,$GNRMC,031151.00,A,3729.897945,N,12701.738303,E,21.0,62.0,240724,9.0,W,A,V*45
2024-07-24 03:11:52,$GNRMC,031152.00,A,3729.900626,N,12701.744944,E,21.2,64.0,240724,9.0,W,A,V*45
2024-07-24 03:11:53,$GNRMC,031153.00,A,3729.903021,N,12701.750699,E,18.3,66.9,240724,9.0,W,A,V*4C
2024-07-24 03:11:54,$GNRMC,031154.00,A,3729.904880,N,12701.756367,E,18.3,68.0,240724,9.0,W,E,V*4E
2024-07-24 03:11:55,$GNRMC,031155.00,A,3729.906801,N,12701.762076,E,18.7,69.5,240724,9.0,W,E,V*40
2024-07-24 03:11:56,$GNRMC,031156.00,A,3729.908378,N,12701.768177,E,19.0,69.9,240724,9.0,W,E,V*48
2024-07-24 03:11:57,$GNRMC,031157.00,A,3729.910014,N,12701.774337,E,19.0,69.6,240724,9.0,W,E,V*4D
2024-07-24 03:11:58,$GNRMC,031158.00,A,3729.912222,N,12701.780386,E,19.3,69.1,240724,9.0,W,E,V*42
2024-07-24 03:11:59,$GNRMC,031159.00,A,3729.914056,N,12701.786057,E,17.9,69.0,240724,9.0,W,E,V*48
2024-07-24 03:12:00,$GNRMC,031200.00,A,3729.916227,N,12701.791844,E,17.8,68.5,240724,9.0,W,E,V*48
2024-07-24 03:12:01,$GNRMC,031201.00,A,3729.918318,N,12701.798221,E,19.3,68.2,240724,9.0,W,E,V*48
2024-07-24 03:12:02,$GNRMC,031202.00,A,3729.920258,N,12701.804618,E,20.0,68.8,240724,9.0,W,E,V*42
2024-07-24 03:12:03,$GNRMC,031203.00,A,3729.922155,N,12701.810426,E,18.3,68.8,240724,9.0,W,E,V*4D
2024-07-24 03:12:04,$GNRMC,031204.00,A,3729.923865,N,12701.815607,E,16.4,68.9,240724,9.0,W,E,V*4D
2024-07-24 03:12:05,$GNRMC,031205.00,A,3729.925733,N,12701.820798,E,16.0,68.4,240724,9.0,W,E,V*4E
2024-07-24 03:12:06,$GNRMC,031206.00,A,3729.927641,N,12701.826516,E,17.5,68.2,240724,9.0,W,E,V*4B
2024-07-24 03:12:07,$GNRMC,031207.00,A,3729.929406,N,12701.832242,E,17.2,68.2,240724,9.0,W,E,V*41
2024-07-24 03:12:08,$GNRMC,031208.00,A,3729.931168,N,12701.837517,E,16.5,68.0,240724,9.0,W,E,V*4C
2024-07-24 03:12:09,$GNRMC,031209.00,A,3729.933153,N,12701.842917,E,17.2,67.9,240724,9.0,W,E,V*49
2024-07-24 03:12:10,$GNRMC,031210.00,A,3729.934968,N,12701.848933,E,17.9,68.4,240724,9.0,W,E,V*43
2024-07-24 03:12:11,$GNRMC,031211.00,A,3729.936471,N,12701.854682,E,17.2,68.9,240724,9.0,W,E,V*4B
2024-07-24 03:12:12,$GNRMC,031212.00,A,3729.937910,N,12701.860823,E,18.1,69.1,240724,9.0,W,E,V*44
2024-07-24 03:12:13,$GNRMC,031213.00,A,3729.939878,N,12701.867407,E,19.8,69.1,240724,9.0,W,E,V*41
2024-07-24 03:12:14,$GNRMC,031214.00,A,3729.941927,N,12701.873466,E,19.9,69.0,240724,9.0,W,E,V*40
2024-07-24 03:12:15,$GNRMC,031215.00,A,3729.943931,N,12701.880354,E,20.3,69.0,240724,9.0,W,E,V*4E
2024-07-24 03:12:16,$GNRMC,031216.00,A,3729.945906,N,12701.887276,E,21.0,69.0,240724,9.0,W,E,V*4B
2024-07-24 03:12:17,$GNRMC,031217.00,A,3729.948022,N,12701.894177,E,20.8,69.2,240724,9.0,W,E,V*43
2024-07-24 03:12:18,$GNRMC,031218.00,A,3729.949841,N,12701.901296,E,21.1,69.4,240724,9.0,W,E,V*4F
2024-07-24 03:12:19,$GNRMC,031219.00,A,3729.951543,N,12701.907771,E,20.0,69.5,240724,9.0,W,E,V*43
2024-07-24 03:12:20,$GNRMC,031220.00,A,3729.953310,N,12701.914328,E,19.9,69.4,240724,9.0,W,E,V*43
2024-07-24 03:12:21,$GNRMC,031221.00,A,3729.955617,N,12701.921225,E,20.9,69.4,240724,9.0,W,E,V*46
2024-07-24 03:12:22,$GNRMC,031222.00,A,3729.957468,N,12701.927907,E,21.0,69.5,240724,9.0,W,E,V*49
2024-07-24 03:12:23,$GNRMC,031223.00,A,3729.959496,N,12701.934338,E,20.2,69.4,240724,9.0,W,E,V*41
2024-07-24 03:12:24,$GNRMC,031224.00,A,3729.961453,N,12701.940717,E,20.1,69.3,240724,9.0,W,E,V*4A
2024-07-24 03:12:25,$GNRMC,031225.00,A,3729.963323,N,12701.947511,E,20.6,69.4,240724,9.0,W,E,V*4A
2024-07-24 03:12:26,$GNRMC,031226.00,A,3729.965642,N,12701.955053,E,22.3,69.4,240724,9.0,W,E,V*4A
2024-07-24 03:12:27,$GNRMC,031227.00,A,3729.967775,N,12701.961463,E,21.3,69.2,240724,9.0,W,E,V*49
2024-07-24 03:12:28,$GNRMC,031228.00,A,3729.969795,N,12701.968447,E,21.4,69.4,240724,9.0,W,E,V*48
2024-07-24 03:12:29,$GNRMC,031229.00,A,3729.971727,N,12701.975118,E,21.3,69.3,240724,9.0,W,E,V*4A
2024-07-24 03:12:30,$GNRMC,031230.00,A,3729.973812,N,12701.981895,E,22.5,69.3,240724,9.0,W,E,V*4B
2024-07-24 03:12:31,$GNRMC,031231.00,A,3729.975908,N,12701.988672,E,20.9,69.3,240724,9.0,W,E,V*46
2024-07-24 03:12:32,$GNRMC,031232.00,A,3729.978137,N,12701.996286,E,22.1,69.5,240724,9.0,W,E,V*40
2024-07-24 03:12:33,$GNRMC,031233.00,A,3729.980282,N,12702.003877,E,22.3,69.4,240724,9.0,W,E,V*4A
2024-07-24 03:12:34,$GNRMC,031234.00,A,3729.982476,N,12702.011666,E,22.9,69.4,240724,9.0,W,E,V*45
2024-07-24 03:12:35,$GNRMC,031235.00,A,3729.984852,N,12702.019321,E,22.3,69.4,240724,9.0,W,E,V*4C
2024-07-24 03:12:36,$GNRMC,031236.00,A,3729.986979,N,12702.026634,E,21.9,69.6,240724,9.0,W,E,V*43
2024-07-24 03:12:37,$GNRMC,031237.00,A,3729.989116,N,12702.032949,E,20.0,69.4,240724,9.0,W,E,V*46
2024-07-24 03:12:38,$GNRMC,031238.00,A,3729.990851,N,12702.039393,E,18.8,69.4,240724,9.0,W,E,V*4E
2024-07-24 03:12:39,$GNRMC,031239.00,A,3729.992493,N,12702.045126,E,17.5,69.4,240724,9.0,W,E,V*4A
2024-07-24 03:12:40,$GNRMC,031240.00,A,3729.994318,N,12702.051059,E,17.7,69.5,240724,9.0,W,E,V*49
2024-07-24 03:12:41,$GNRMC,031241.00,A,3729.996330,N,12702.056779,E,17.7,69.4,240724,9.0,W,E,V*43
2024-07-24 03:12:42,$GNRMC,031242.00,A,3729.997979,N,12702.062075,E,16.4,69.2,240724,9.0,W,E,V*4E
2024-07-24 03:12:43,$GNRMC,031243.00,A,3729.999601,N,12702.067165,E,15.7,69.1,240724,9.0,W,E,V*47
2024-07-24 03:12:44,$GNRMC,031244.00,A,3730.001039,N,12702.072089,E,15.9,69.2,240724,9.0,W,E,V*47
2024-07-24 03:12:45,$GNRMC,031245.00,A,3730.002371,N,12702.077020,E,15.3,69.6,240724,9.0,W,E,V*42
2024-07-24 03:12:46,$GNRMC,031246.00,A,3730.003587,N,12702.081102,E,13.2,69.4,240724,9.0,W,E,V*42
2024-07-24 03:12:47,$GNRMC,031247.00,A,3730.004792,N,12702.085037,E,12.1,69.4,240724,9.0,W,E,V*43
2024-07-24 03:12:48,$GNRMC,031248.00,A,3730.005639,N,12702.087489,E,7.6,69.3,240724,9.0,W,E,V*7A
2024-07-24 03:12:49,$GNRMC,031249.00,A,3730.005746,N,12702.088042,E,2.9,69.4,240724,9.0,W,E,V*73
2024-07-24 03:12:50,$GNRMC,031250.00,A,3730.006193,N,12702.089150,E,3.0,69.4,240724,9.0,W,E,V*7D
2024-07-24 03:12:51,$GNRMC,031251.00,A,3730.006629,N,12702.090387,E,3.9,69.4,240724,9.0,W,E,V*73
2024-07-24 03:12:52,$GNRMC,031252.00,A,3730.007499,N,12702.092237,E,5.5,69.3,240724,9.0,W,E,V*7D
2024-07-24 03:12:53,$GNRMC,031253.00,A,3730.008224,N,12702.093770,E,5.4,68.7,240724,9.0,W,E,V*70
2024-07-24 03:12:54,$GNRMC,031254.00,A,3730.008854,N,12702.095462,E,5.5,68.7,240724,9.0,W,E,V*7D
2024-07-24 03:12:55,$GNRMC,031255.00,A,3730.009485,N,12702.097154,E,4.9,68.8,240724,9.0,W,E,V*7D
2024-07-24 03:12:56,$GNRMC,031256.00,A,3730.010105,N,12702.098771,E,4.8,68.8,240724,9.0,W,E,V*74
2024-07-24 03:12:57,$GNRMC,031257.00,A,3730.010461,N,12702.099863,E,3.5,69.0,240724,9.0,W,E,V*7C
2024-07-24 03:12:58,$GNRMC,031258.00,A,3730.010757,N,12702.100487,E,1.9,68.8,240724,9.0,W,E,V*75
2024-07-24 03:12:59,$GNRMC,031259.00,A,3730.010798,N,12702.100211,E,0.0,,240724,9.0,W,E,V*6E
2024-07-24 03:13:00,$GNRMC,031300.00,A,3730.010883,N,12702.100147,E,0.0,,240724,9.0,W,E,V*66
2024-07-24 03:13:01,$GNRMC,031301.00,A,3730.011107,N,12702.100020,E,0.0,,240724,9.0,W,E,V*63
2024-07-24 03:13:02,$GNRMC,031302.00,A,3730.011316,N,12702.099777,E,0.0,,240724,9.0,W,E,V*66
2024-07-24 03:13:03,$GNRMC,031303.00,A,3730.011627,N,12702.099478,E,0.0,,240724,9.0,W,E,V*6C
2024-07-24 03:13:04,$GNRMC,031304.00,A,3730.011833,N,12702.099272,E,0.0,,240724,9.0,W,E,V*6C
2024-07-24 03:13:05,$GNRMC,031305.00,A,3730.011944,N,12702.099167,E,0.0,,240724,9.0,W,E,V*6B
2024-07-24 03:13:06,$GNRMC,031306.00,A,3730.012013,N,12702.099089,E,0.0,,240724,9.0,W,E,V*61
2024-07-24 03:13:07,$GNRMC,031307.00,A,3730.012118,N,12702.099089,E,0.5,69.0,240724,9.0,W,E,V*7E
2024-07-24 03:13:08,$GNRMC,031308.00,A,3730.012271,N,12702.099521,E,2.0,69.1,240724,9.0,W,E,V*7C
2024-07-24 03:13:09,$GNRMC,031309.00,A,3730.012588,N,12702.100317,E,3.1,69.0,240724,9.0,W,E,V*7F
2024-07-24 03:13:10,$GNRMC,031310.00,A,3730.012894,N,12702.101206,E,3.0,68.9,240724,9.0,W,E,V*7E
2024-07-24 03:13:11,$GNRMC,031311.00,A,3730.013058,N,12702.102201,E,3.0,69.5,240724,9.0,W,E,V*7F
2024-07-24 03:13:12,$GNRMC,031312.00,A,3730.013162,N,12702.103042,E,2.7,69.2,240724,9.0,W,E,V*71
2024-07-24 03:13:13,$GNRMC,031313.00,A,3730.013179,N,12702.103807,E,2.4,69.7,240724,9.0,W,E,V*75
2024-07-24 03:13:14,$GNRMC,031314.00,A,3730.013274,N,12702.104436,E,2.2,69.8,240724,9.0,W,E,V*7C
2024-07-24 03:13:15,$GNRMC,031315.00,A,3730.013271,N,12702.104961,E,1.6,69.9,240724,9.0,W,E,V*71
2024-07-24 03:13:16,$GNRMC,031316.00,A,3730.013222,N,12702.105207,E,0.8,69.9,240724,9.0,W,E,V*71
2024-07-24 03:13:17,$GNRMC,031317.00,A,3730.012810,N,12702.105245,E,0.0,,240724,9.0,W,E,V*6C
2024-07-24 03:13:18,$GNRMC,031318.00,A,3730.012416,N,12702.105247,E,0.0,,240724,9.0,W,E,V*6B
2024-07-24 03:13:19,$GNRMC,031319.00,A,3730.012296,N,12702.105216,E,0.0,,240724,9.0,W,E,V*60
2024-07-24 03:13:20,$GNRMC,031320.00,A,3730.012323,N,12702.105224,E,0.0,,240724,9.0,W,E,V*64
2024-07-24 03:13:21,$GNRMC,031321.00,A,3730.012278,N,12702.105256,E,0.0,,240724,9.0,W,E,V*6F
2024-07-24 03:13:22,$GNRMC,031322.00,A,3730.012327,N,12702.105224,E,0.0,,240724,9.0,W,E,V*62
2024-07-24 03:13:23,$GNRMC,031323.00,A,3730.012347,N,12702.105174,E,0.0,,240724,9.0,W,E,V*63
2024-07-24 03:13:24,$GNRMC,031324.00,A,3730.012385,N,12702.105153,E,0.0,,240724,9.0,W,E,V*6F
2024-07-24 03:13:25,$GNRMC,031325.00,A,3730.012340,N,12702.105114,E,0.0,,240724,9.0,W,E,V*64
2024-07-24 03:13:26,$GNRMC,031326.00,A,3730.012323,N,12702.105065,E,0.0,,240724,9.0,W,E,V*65
2024-07-24 03:13:27,$GNRMC,031327.00,A,3730.012352,N,12702.105032,E,0.0,,240724,9.0,W,E,V*60
2024-07-24 03:13:28,$GNRMC,031328.00,A,3730.012340,N,12702.105035,E,0.0,,240724,9.0,W,E,V*6B
2024-07-24 03:13:29,$GNRMC,031329.00,A,3730.012337,N,12702.105042,E,0.0,,240724,9.0,W,E,V*6A
2024-07-24 03:13:30,$GNRMC,031330.00,A,3730.012350,N,12702.105038,E,0.0,,240724,9.0,W,E,V*6E
2024-07-24 03:13:31,$GNRMC,031331.00,A,3730.012362,N,12702.105049,E,0.0,,240724,9.0,W,E,V*68
2024-07-24 03:13:32,$GNRMC,031332.00,A,3730.012405,N,12702.105023,E,0.0,,240724,9.0,W,E,V*61
2024-07-24 03:13:33,$GNRMC,031333.00,A,3730.012311,N,12702.105114,E,0.0,,240724,9.0,W,E,V*67
2024-07-24 03:13:34,$GNRMC,031334.00,A,3730.012233,N,12702.105174,E,0.0,,240724,9.0,W,E,V*67
2024-07-24 03:13:35,$GNRMC,031335.00,A,3730.012194,N,12702.105202,E,0.0,,240724,9.0,W,E,V*6A
2024-07-24 03:13:36,$GNRMC,031336.00,A,3730.012179,N,12702.105221,E,0.0,,240724,9.0,W,E,V*6B
2024-07-24 03:13:37,$GNRMC,031337.00,A,3730.012180,N,12702.105236,E,0.0,,240724,9.0,W,E,V*6A
2024-07-24 03:13:38,$GNRMC,031338.00,A,3730.012190,N,12702.105246,E,0.0,,240724,9.0,W,E,V*63
2024-07-24 03:13:39,$GNRMC,031339.00,A,3730.012208,N,12702.105247,E,0.0,,240724,9.0,W,E,V*61
2024-07-24 03:13:40,$GNRMC,031340.00,A,3730.012220,N,12702.105252,E,0.0,,240724,9.0,W,E,V*61
2024-07-24 03:13:41,$GNRMC,031341.00,A,3730.012251,N,12702.105252,E,0.0,,240724,9.0,W,E,V*66
2024-07-24 03:13:42,$GNRMC,031342.00,A,3730.012262,N,12702.105262,E,0.0,,240724,9.0,W,E,V*66
2024-07-24 03:13:43,$GNRMC,031343.00,A,3730.012266,N,12702.105265,E,0.0,,240724,9.0,W,E,V*64
2024-07-24 03:13:44,$GNRMC,031344.00,A,3730.012271,N,12702.105272,E,0.0,,240724,9.0,W,E,V*63
2024-07-24 03:13:45,$GNRMC,031345.00,A,3730.012407,N,12702.105684,E,1.4,70.0,240724,9.0,W,E,V*74
2024-07-24 03:13:46,$GNRMC,031346.00,A,3730.012563,N,12702.106265,E,1.8,70.2,240724,9.0,W,E,V*72
2024-07-24 03:13:47,$GNRMC,031347.00,A,3730.012751,N,12702.106866,E,1.7,70.1,240724,9.0,W,E,V*75
2024-07-24 03:13:48,$GNRMC,031348.00,A,3730.012835,N,12702.107261,E,1.2,70.2,240724,9.0,W,E,V*7D
2024-07-24 03:13:49,$GNRMC,031349.00,A,3730.012910,N,12702.107438,E,0.8,69.9,240724,9.0,W,E,V*78
2024-07-24 03:13:50,$GNRMC,031350.00,A,3730.012948,N,12702.107621,E,1.0,69.9,240724,9.0,W,E,V*7E
2024-07-24 03:13:51,$GNRMC,031351.00,A,3730.012954,N,12702.107802,E,1.0,69.9,240724,9.0,W,E,V*7D
2024-07-24 03:13:52,$GNRMC,031352.00,A,3730.012865,N,12702.107963,E,0.8,70.3,240724,9.0,W,E,V*70
2024-07-24 03:13:53,$GNRMC,031353.00,A,3730.012850,N,12702.108165,E,0.8,70.3,240724,9.0,W,E,V*76
2024-07-24 03:13:54,$GNRMC,031354.00,A,3730.012856,N,12702.108404,E,1.0,70.4,240724,9.0,W,E,V*7B
2024-07-24 03:13:55,$GNRMC,031355.00,A,3730.012898,N,12702.108579,E,0.9,70.8,240724,9.0,W,E,V*77
2024-07-24 03:13:56,$GNRMC,031356.00,A,3730.012943,N,12702.108830,E,1.0,70.8,240724,9.0,W,E,V*7B
2024-07-24 03:13:57,$GNRMC,031357.00,A,3730.013123,N,12702.109525,E,2.5,70.7,240724,9.0,W,E,V*74
2024-07-24 03:13:58,$GNRMC,031358.00,A,3730.013629,N,12702.110858,E,4.6,68.7,240724,9.0,W,E,V*75
2024-07-24 03:13:59,$GNRMC,031359.00,A,3730.014355,N,12702.112809,E,6.3,68.6,240724,9.0,W,E,V*7D
2024-07-24 03:14:00,$GNRMC,031400.00,A,3730.015078,N,12702.114870,E,6.4,68.4,240724,9.0,W,E,V*76
2024-07-24 03:14:01,$GNRMC,031401.00,A,3730.015697,N,12702.116655,E,5.4,68.4,240724,9.0,W,E,V*78
2024-07-24 03:14:02,$GNRMC,031402.00,A,3730.016297,N,12702.118420,E,5.7,68.4,240724,9.0,W,E,V*71
2024-07-24 03:14:03,$GNRMC,031403.00,A,3730.017066,N,12702.120818,E,7.4,68.5,240724,9.0,W,E,V*71
2024-07-24 03:14:04,$GNRMC,031404.00,A,3730.017894,N,12702.123695,E,8.8,69.2,240724,9.0,W,E,V*7E
2024-07-24 03:14:05,$GNRMC,031405.00,A,3730.019011,N,12702.128126,E,10.0,69.7,240724,9.0,W,E,V*44
2024-07-24 03:14:06,$GNRMC,031406.00,A,3730.020498,N,12702.132550,E,11.0,69.4,240724,9.0,W,E,V*44
2024-07-24 03:14:07,$GNRMC,031407.00,A,3730.021484,N,12702.136311,E,11.8,69.3,240724,9.0,W,E,V*41
2024-07-24 03:14:08,$GNRMC,031408.00,A,3730.022451,N,12702.140199,E,11.0,69.3,240724,9.0,W,E,V*4E
2024-07-24 03:14:09,$GNRMC,031409.00,A,3730.023589,N,12702.144469,E,11.3,69.1,240724,9.0,W,E,V*45
2024-07-24 03:14:10,$GNRMC,031410.00,A,3730.024828,N,12702.148842,E,12.0,69.0,240724,9.0,W,E,V*44
2024-07-24 03:14:11,$GNRMC,031411.00,A,3730.026140,N,12702.153419,E,13.1,69.2,240724,9.0,W,E,V*4A
2024-07-24 03:14:12,$GNRMC,031412.00,A,3730.027596,N,12702.158126,E,13.1,69.3,240724,9.0,W,E,V*44
2024-07-24 03:14:13,$GNRMC,031413.00,A,3730.028583,N,12702.161919,E,11.8,69.4,240724,9.0,W,E,V*4C
2024-07-24 03:14:14,$GNRMC,031414.00,A,3730.029785,N,12702.166173,E,12.7,69.2,240724,9.0,W,E,V*47
2024-07-24 03:14:15,$GNRMC,031415.00,A,3730.030991,N,12702.170654,E,13.8,69.2,240724,9.0,W,E,V*4E
2024-07-24 03:14:16,$GNRMC,031416.00,A,3730.032396,N,12702.175661,E,15.0,67.6,240724,9.0,W,E,V*45
2024-07-24 03:14:17,$GNRMC,031417.00,A,3730.033956,N,12702.181092,E,16.2,68.8,240724,9.0,W,E,V*42
2024-07-24 03:14:18,$GNRMC,031418.00,A,3730.035608,N,12702.186310,E,16.5,68.7,240724,9.0,W,E,V*49
2024-07-24 03:14:19,$GNRMC,031419.00,A,3730.037148,N,12702.191608,E,15.0,68.7,240724,9.0,W,E,V*45
2024-07-24 03:14:20,$GNRMC,031420.00,A,3730.038631,N,12702.196586,E,15.0,68.4,240724,9.0,W,E,V*48
2024-07-24 03:14:21,$GNRMC,031421.00,A,3730.040072,N,12702.201728,E,15.9,68.5,240724,9.0,W,E,V*44
2024-07-24 03:14:22,$GNRMC,031422.00,A,3730.041704,N,12702.207224,E,16.8,68.8,240724,9.0,W,E,V*40
2024-07-24 03:14:23,$GNRMC,031423.00,A,3730.043264,N,12702.212529,E,15.6,68.9,240724,9.0,W,E,V*42
2024-07-24 03:14:24,$GNRMC,031424.00,A,3730.045047,N,12702.217857,E,16.1,68.7,240724,9.0,W,E,V*4B
2024-07-24 03:14:25,$GNRMC,031425.00,A,3730.046915,N,12702.223432,E,17.1,68.9,240724,9.0,W,E,V*40
2024-07-24 03:14:26,$GNRMC,031426.00,A,3730.048748,N,12702.229355,E,18.5,68.6,240724,9.0,W,E,V*43
2024-07-24 03:14:27,$GNRMC,031427.00,A,3730.050688,N,12702.235248,E,17.6,68.9,240724,9.0,W,E,V*45
2024-07-24 03:14:28,$GNRMC,031428.00,A,3730.052522,N,12702.240802,E,15.9,69.1,240724,9.0,W,E,V*49
2024-07-24 03:14:29,$GNRMC,031429.00,A,3730.054409,N,12702.246102,E,15.6,69.0,240724,9.0,W,E,V*47
2024-07-24 03:14:30,$GNRMC,031430.00,A,3730.055927,N,12702.250866,E,14.0,69.3,240724,9.0,W,E,V*47
2024-07-24 03:14:31,$GNRMC,031431.00,A,3730.057347,N,12702.255471,E,13.7,69.0,240724,9.0,W,E,V*44
2024-07-24 03:14:32,$GNRMC,031432.00,A,3730.058514,N,12702.259241,E,10.1,69.0,240724,9.0,W,E,V*44
2024-07-24 03:14:33,$GNRMC,031433.00,A,3730.059242,N,12702.261656,E,5.1,69.3,240724,9.0,W,E,V*7E
2024-07-24 03:14:34,$GNRMC,031434.00,A,3730.059566,N,12702.262713,E,1.8,69.4,240724,9.0,W,E,V*71
2024-07-24 03:14:35,$GNRMC,031435.00,A,3730.059636,N,12702.262953,E,0.0,,240724,9.0,W,E,V*60
2024-07-24 03:14:36,$GNRMC,031436.00,A,3730.059779,N,12702.263435,E,1.8,69.6,240724,9.0,W,E,V*7B
2024-07-24 03:14:37,$GNRMC,031437.00,A,3730.060116,N,12702.264421,E,3.8,69.6,240724,9.0,W,E,V*7F
2024-07-24 03:14:38,$GNRMC,031438.00,A,3730.060715,N,12702.266115,E,6.1,69.5,240724,9.0,W,E,V*7A
2024-07-24 03:14:39,$GNRMC,031439.00,A,3730.061501,N,12702.268604,E,8.5,69.4,240724,9.0,W,E,V*7F
2024-07-24 03:14:40,$GNRMC,031440.00,A,3730.062517,N,12702.271799,E,10.6,69.0,240724,9.0,W,E,V*46
2024-07-24 03:14:41,$GNRMC,031441.00,A,3730.063535,N,12702.275423,E,11.5,69.0,240724,9.0,W,E,V*42
2024-07-24 03:14:42,$GNRMC,031442.00,A,3730.064608,N,12702.278736,E,10.2,68.9,240724,9.0,W,E,V*4F
2024-07-24 03:14:43,$GNRMC,031443.00,A,3730.065693,N,12702.282349,E,11.2,69.2,240724,9.0,W,E,V*4F
2024-07-24 03:14:44,$GNRMC,031444.00,A,3730.066884,N,12702.286245,E,12.5,69.2,240724,9.0,W,E,V*4E
2024-07-24 03:14:45,$GNRMC,031445.00,A,3730.068221,N,12702.290573,E,13.9,69.1,240724,9.0,W,E,V*4F
2024-07-24 03:14:46,$GNRMC,031446.00,A,3730.069580,N,12702.294951,E,13.0,68.9,240724,9.0,W,E,V*49
2024-07-24 03:14:47,$GNRMC,031447.00,A,3730.070765,N,12702.298857,E,11.3,69.1,240724,9.0,W,E,V*4A
2024-07-24 03:14:48,$GNRMC,031448.00,A,3730.071939,N,12702.302711,E,11.9,69.3,240724,9.0,W,E,V*44
2024-07-24 03:14:49,$GNRMC,031449.00,A,3730.073185,N,12702.306903,E,13.3,69.1,240724,9.0,W,E,V*4B
2024-07-24 03:14:50,$GNRMC,031450.00,A,3730.074539,N,12702.311220,E,13.1,69.1,240724,9.0,W,E,V*49
2024-07-24 03:14:51,$GNRMC,031451.00,A,3730.075887,N,12702.315419,E,13.2,69.1,240724,9.0,W,E,V*4A
2024-07-24 03:14:52,$GNRMC,031452.00,A,3730.077251,N,12702.319715,E,13.6,68.9,240724,9.0,W,E,V*44
2024-07-24 03:14:53,$GNRMC,031453.00,A,3730.078462,N,12702.323838,E,12.6,69.1,240724,9.0,W,E,V*4D
2024-07-24 03:14:54,$GNRMC,031454.00,A,3730.079704,N,12702.327687,E,11.8,69.0,240724,9.0,W,E,V*4A
2024-07-24 03:14:55,$GNRMC,031455.00,A,3730.080941,N,12702.331802,E,13.1,69.2,240724,9.0,W,E,V*4F
2024-07-24 03:14:56,$GNRMC,031456.00,A,3730.082262,N,12702.335972,E,13.0,69.2,240724,9.0,W,E,V*47
2024-07-24 03:14:57,$GNRMC,031457.00,A,3730.083552,N,12702.340187,E,13.0,69.3,240724,9.0,W,E,V*42
2024-07-24 03:14:58,$GNRMC,031458.00,A,3730.085035,N,12702.344633,E,14.0,69.3,240724,9.0,W,E,V*44
2024-07-24 03:14:59,$GNRMC,031459.00,A,3730.086401,N,12702.349221,E,14.1,69.1,240724,9.0,W,E,V*4C
2024-07-24 03:15:00,$GNRMC,031500.00,A,3730.087824,N,12702.354162,E,14.1,69.3,240724,9.0,W,E,V*41
2024-07-24 03:15:01,$GNRMC,031501.00,A,3730.089140,N,12702.358580,E,13.2,69.2,240724,9.0,W,E,V*44
2024-07-24 03:15:02,$GNRMC,031502.00,A,3730.090407,N,12702.362480,E,11.9,69.3,240724,9.0,W,E,V*49
2024-07-24 03:15:03,$GNRMC,031503.00,A,3730.091705,N,12702.366591,E,11.8,69.2,240724,9.0,W,E,V*4D
2024-07-24 03:15:04,$GNRMC,031504.00,A,3730.092607,N,12702.370396,E,11.5,69.4,240724,9.0,W,E,V*47
2024-07-24 03:15:05,$GNRMC,031505.00,A,3730.093738,N,12702.374232,E,11.5,69.4,240724,9.0,W,E,V*41
2024-07-24 03:15:06,$GNRMC,031506.00,A,3730.094860,N,12702.378096,E,11.4,69.5,240724,9.0,W,E,V*47
2024-07-24 03:15:07,$GNRMC,031507.00,A,3730.095726,N,12702.381281,E,9.6,69.3,240724,9.0,W,E,V*75
2024-07-24 03:15:08,$GNRMC,031508.00,A,3730.096647,N,12702.384477,E,9.2,69.4,240724,9.0,W,E,V*76
2024-07-24 03:15:09,$GNRMC,031509.00,A,3730.097340,N,12702.387253,E,8.3,69.7,240724,9.0,W,E,V*74
2024-07-24 03:15:10,$GNRMC,031510.00,A,3730.097983,N,12702.389447,E,5.9,69.7,240724,9.0,W,E,V*73
2024-07-24 03:15:11,$GNRMC,031511.00,A,3730.098561,N,12702.390972,E,4.3,69.6,240724,9.0,W,E,V*74
2024-07-24 03:15:12,$GNRMC,031512.00,A,3730.098889,N,12702.391920,E,2.4,69.7,240724,9.0,W,E,V*7A
2024-07-24 03:15:13,$GNRMC,031513.00,A,3730.099065,N,12702.392259,E,0.7,69.6,240724,9.0,W,E,V*76
2024-07-24 03:15:14,$GNRMC,031514.00,A,3730.099049,N,12702.392194,E,0.0,,240724,9.0,W,E,V*6D
2024-07-24 03:15:15,$GNRMC,031515.00,A,3730.099049,N,12702.392194,E,0.0,,240724,9.0,W,E,V*6C
2024-07-24 03:15:16,$GNRMC,031516.00,A,3730.099049,N,12702.392194,E,0.0,,240724,9.0,W,E,V*6F
2024-07-24 03:15:17,$GNRMC,031517.00,A,3730.099049,N,12702.392194,E,0.0,,240724,9.0,W,E,V*6E
2024-07-24 03:15:18,$GNRMC,031518.00,A,3730.099049,N,12702.392194,E,0.0,,240724,9.0,W,E,V*61
2024-07-24 03:15:19,$GNRMC,031519.00,A,3730.099049,N,12702.392194,E,0.0,,240724,9.0,W,E,V*60
2024-07-24 03:15:20,$GNRMC,031520.00,A,3730.099049,N,12702.392194,E,0.0,,240724,9.0,W,E,V*6A
2024-07-24 03:15:21,$GNRMC,031521.00,A,3730.099049,N,12702.392194,E,0.0,,240724,9.0,W,E,V*6B
2024-07-24 03:15:22,$GNRMC,031522.00,A,3730.099049,N,12702.392194,E,0.0,,240724,9.0,W,E,V*68
2024-07-24 03:15:23,$GNRMC,031523.00,A,3730.099049,N,12702.392194,E,0.0,,240724,9.0,W,E,V*69
2024-07-24 03:15:24,$GNRMC,031524.00,A,3730.099049,N,12702.392194,E,0.0,,240724,9.0,W,E,V*6E
2024-07-24 03:15:25,$GNRMC,031525.00,A,3730.099049,N,12702.392194,E,0.0,,240724,9.0,W,E,V*6F
2024-07-24 03:15:26,$GNRMC,031526.00,A,3730.099049,N,12702.392194,E,0.0,,240724,9.0,W,E,V*6C
2024-07-24 03:15:27,$GNRMC,031527.00,A,3730.099049,N,12702.392194,E,0.0,,240724,9.0,W,E,V*6D
2024-07-24 03:15:28,$GNRMC,031528.00,A,3730.099049,N,12702.392194,E,0.0,,240724,9.0,W,E,V*62
2024-07-24 03:15:29,$GNRMC,031529.00,A,3730.099049,N,12702.392194,E,0.0,,240724,9.0,W,E,V*63
2024-07-24 03:15:30,$GNRMC,031530.00,A,3730.099049,N,12702.392194,E,0.0,,240724,9.0,W,E,V*6B
2024-07-24 03:15:31,$GNRMC,031531.00,A,3730.099049,N,12702.392194,E,0.0,,240724,9.0,W,E,V*6A
2024-07-24 03:15:32,$GNRMC,031532.00,A,3730.099049,N,12702.392194,E,0.0,,240724,9.0,W,E,V*69
2024-07-24 03:15:33,$GNRMC,031533.00,A,3730.099049,N,12702.392194,E,0.0,,240724,9.0,W,E,V*68
2024-07-24 03:15:34,$GNRMC,031534.00,A,3730.099049,N,12702.392194,E,0.0,,240724,9.0,W,E,V*6F
2024-07-24 03:15:35,$GNRMC,031535.00,A,3730.099049,N,12702.392194,E,0.0,,240724,9.0,W,E,V*6E
2024-07-24 03:15:36,$GNRMC,031536.00,A,3730.099049,N,12702.392194,E,0.0,,240724,9.0,W,E,V*6D
2024-07-24 03:15:37,$GNRMC,031537.00,A,3730.099049,N,12702.392194,E,0.0,,240724,9.0,W,E,V*6C
2024-07-24 03:15:38,$GNRMC,031538.00,A,3730.099049,N,12702.392194,E,0.0,,240724,9.0,W,E,V*63
2024-07-24 03:15:39,$GNRMC,031539.00,A,3730.099049,N,12702.392194,E,0.0,,240724,9.0,W,E,V*62
2024-07-24 03:15:40,$GNRMC,031540.00,A,3730.099049,N,12702.392194,E,0.0,,240724,9.0,W,E,V*6C
2024-07-24 03:15:41,$GNRMC,031541.00,A,3730.099049,N,12702.392194,E,0.0,,240724,9.0,W,E,V*6D
2024-07-24 03:15:42,$GNRMC,031542.00,A,3730.099049,N,12702.392194,E,0.0,,240724,9.0,W,E,V*6E
2024-07-24 03:15:43,$GNRMC,031543.00,A,3730.099049,N,12702.392194,E,0.0,,240724,9.0,W,E,V*6F
2024-07-24 03:15:44,$GNRMC,031544.00,A,3730.099049,N,12702.392194,E,0.0,,240724,9.0,W,E,V*68
2024-07-24 03:15:45,$GNRMC,031545.00,A,3730.099049,N,12702.392194,E,0.0,,240724,9.0,W,E,V*69
2024-07-24 03:15:46,$GNRMC,031546.00,A,3730.099049,N,12702.392194,E,0.0,,240724,9.0,W,E,V*6A
2024-07-24 03:15:47,$GNRMC,031547.00,A,3730.099049,N,12702.392194,E,0.0,,240724,9.0,W,E,V*6B
2024-07-24 03:15:48,$GNRMC,031548.00,A,3730.099049,N,12702.392194,E,0.0,,240724,9.0,W,E,V*64
2024-07-24 03:15:49,$GNRMC,031549.00,A,3730.099049,N,12702.392194,E,0.0,,240724,9.0,W,E,V*65
2024-07-24 03:15:50,$GNRMC,031550.00,A,3730.099049,N,12702.392194,E,0.0,,240724,9.0,W,E,V*6D
2024-07-24 03:15:51,$GNRMC,031551.00,A,3730.099049,N,12702.392194,E,0.0,,240724,9.0,W,E,V*6C
2024-07-24 03:15:52,$GNRMC,031552.00,A,3730.099049,N,12702.392194,E,0.0,,240724,9.0,W,E,V*6F
2024-07-24 03:15:53,$GNRMC,031553.00,A,3730.099049,N,12702.392194,E,0.0,,240724,9.0,W,E,V*6E
2024-07-24 03:15:54,$GNRMC,031554.00,A,3730.099049,N,12702.392194,E,0.0,,240724,9.0,W,E,V*69
2024-07-24 03:15:55,$GNRMC,031555.00,A,3730.099731,N,12702.392686,E,2.0,69.9,240724,9.0,W,E,V*7E
2024-07-24 03:15:56,$GNRMC,031556.00,A,3730.100254,N,12702.394249,E,5.7,68.8,240724,9.0,W,E,V*7B
2024-07-24 03:15:57,$GNRMC,031557.00,A,3730.101100,N,12702.396956,E,9.3,69.0,240724,9.0,W,E,V*7F
2024-07-24 03:15:58,$GNRMC,031558.00,A,3730.102251,N,12702.400627,E,12.5,68.9,240724,9.0,W,E,V*41
2024-07-24 03:15:59,$GNRMC,031559.00,A,3730.103669,N,12702.405065,E,14.9,68.9,240724,9.0,W,E,V*41
2024-07-24 03:16:00,$GNRMC,031600.00,A,3730.105279,N,12702.410466,E,16.4,68.6,240724,9.0,W,E,V*4E
2024-07-24 03:16:01,$GNRMC,031601.00,A,3730.106956,N,12702.415953,E,16.4,68.4,240724,9.0,W,E,V*46
2024-07-24 03:16:02,$GNRMC,031602.00,A,3730.108550,N,12702.421359,E,16.4,68.8,240724,9.0,W,E,V*4A
2024-07-24 03:16:03,$GNRMC,031603.00,A,3730.110200,N,12702.426609,E,16.3,68.9,240724,9.0,W,E,V*41
2024-07-24 03:16:04,$GNRMC,031604.00,A,3730.111815,N,12702.432075,E,15.7,69.2,240724,9.0,W,E,V*4C
2024-07-24 03:16:05,$GNRMC,031605.00,A,3730.113306,N,12702.436925,E,15.1,69.1,240724,9.0,W,E,V*4B
2024-07-24 03:16:06,$GNRMC,031606.00,A,3730.114768,N,12702.441813,E,14.9,69.1,240724,9.0,W,E,V*4E
2024-07-24 03:16:07,$GNRMC,031607.00,A,3730.116224,N,12702.446598,E,14.3,69.1,240724,9.0,W,E,V*43
2024-07-24 03:16:08,$GNRMC,031608.00,A,3730.117559,N,12702.451017,E,13.0,69.3,240724,9.0,W,E,V*42
2024-07-24 03:16:09,$GNRMC,031609.00,A,3730.118747,N,12702.454965,E,11.4,69.3,240724,9.0,W,E,V*4E
2024-07-24 03:16:10,$GNRMC,031610.00,A,3730.119800,N,12702.458452,E,9.9,69.4,240724,9.0,W,E,V*7D
2024-07-24 03:16:11,$GNRMC,031611.00,A,3730.120751,N,12702.461180,E,8.0,69.1,240724,9.0,W,E,V*70
2024-07-24 03:16:12,$GNRMC,031612.00,A,3730.121538,N,12702.463568,E,6.3,69.1,240724,9.0,W,E,V*72
2024-07-24 03:16:13,$GNRMC,031613.00,A,3730.121984,N,12702.465353,E,4.3,69.2,240724,9.0,W,E,V*71
2024-07-24 03:16:14,$GNRMC,031614.00,A,3730.122295,N,12702.466467,E,2.7,69.3,240724,9.0,W,E,V*7E
2024-07-24 03:16:15,$GNRMC,031615.00,A,3730.122479,N,12702.467149,E,1.6,69.4,240724,9.0,W,E,V*76
2024-07-24 03:16:16,$GNRMC,031616.00,A,3730.122596,N,12702.467511,E,0.5,69.4,240724,9.0,W,E,V*7E
2024-07-24 03:16:17,$GNRMC,031617.00,A,3730.122578,N,12702.467541,E,0.0,,240724,9.0,W,E,V*6A
2024-07-24 03:16:18,$GNRMC,031618.00,A,3730.122578,N,12702.467540,E,0.0,,240724,9.0,W,E,V*64
2024-07-24 03:16:19,$GNRMC,031619.00,A,3730.122578,N,12702.467540,E,0.0,,240724,9.0,W,E,V*65
2024-07-24 03:16:20,$GNRMC,031620.00,A,3730.122578,N,12702.467540,E,0.0,,240724,9.0,W,E,V*6F
2024-07-24 03:16:21,$GNRMC,031621.00,A,3730.122578,N,12702.467540,E,0.0,,240724,9.0,W,E,V*6E
2024-07-24 03:16:22,$GNRMC,031622.00,A,3730.122578,N,12702.467540,E,0.0,,240724,9.0,W,E,V*6D
2024-07-24 03:16:23,$GNRMC,031623.00,A,3730.122578,N,12702.467540,E,0.0,,240724,9.0,W,E,V*6C
2024-07-24 03:16:24,$GNRMC,031624.00,A,3730.122578,N,12702.467540,E,0.0,,240724,9.0,W,E,V*6B
2024-07-24 03:16:25,$GNRMC,031625.00,A,3730.122578,N,12702.467540,E,0.0,,240724,9.0,W,E,V*6A
2024-07-24 03:16:26,$GNRMC,031626.00,A,3730.122578,N,12702.467540,E,0.0,,240724,9.0,W,E,V*69
2024-07-24 03:16:27,$GNRMC,031627.00,A,3730.122578,N,12702.467540,E,0.0,,240724,9.0,W,E,V*68
2024-07-24 03:16:28,$GNRMC,031628.00,A,3730.122578,N,12702.467540,E,0.0,,240724,9.0,W,E,V*67
2024-07-24 03:16:29,$GNRMC,031629.00,A,3730.122578,N,12702.467540,E,0.0,,240724,9.0,W,E,V*66
2024-07-24 03:16:30,$GNRMC,031630.00,A,3730.122578,N,12702.467540,E,0.0,,240724,9.0,W,E,V*6E
2024-07-24 03:16:31,$GNRMC,031631.00,A,3730.122578,N,12702.467540,E,0.0,,240724,9.0,W,E,V*6F
2024-07-24 03:16:32,$GNRMC,031632.00,A,3730.122578,N,12702.467540,E,0.0,,240724,9.0,W,E,V*6C
2024-07-24 03:16:33,$GNRMC,031633.00,A,3730.122578,N,12702.467540,E,0.0,,240724,9.0,W,E,V*6D
2024-07-24 03:16:34,$GNRMC,031634.00,A,3730.122578,N,12702.467540,E,0.0,,240724,9.0,W,E,V*6A
2024-07-24 03:16:35,$GNRMC,031635.00,A,3730.122578,N,12702.467540,E,0.0,,240724,9.0,W,E,V*6B
2024-07-24 03:16:36,$GNRMC,031636.00,A,3730.122578,N,12702.467540,E,0.0,,240724,9.0,W,E,V*68
2024-07-24 03:16:37,$GNRMC,031637.00,A,3730.122743,N,12702.469089,E,3.1,69.3,240724,9.0,W,E,V*7D
2024-07-24 03:16:38,$GNRMC,031638.00,A,3730.123239,N,12702.470514,E,5.2,68.4,240724,9.0,W,E,V*71
2024-07-24 03:16:39,$GNRMC,031639.00,A,3730.123904,N,12702.472593,E,7.2,68.3,240724,9.0,W,E,V*7D
2024-07-24 03:16:40,$GNRMC,031640.00,A,3730.124660,N,12702.475176,E,9.2,68.6,240724,9.0,W,E,V*7A
2024-07-24 03:16:41,$GNRMC,031641.00,A,3730.125667,N,12702.478388,E,10.0,68.5,240724,9.0,W,E,V*4A
2024-07-24 03:16:42,$GNRMC,031642.00,A,3730.126695,N,12702.481709,E,10.3,69.0,240724,9.0,W,E,V*4B
2024-07-24 03:16:43,$GNRMC,031643.00,A,3730.127757,N,12702.485079,E,10.7,69.1,240724,9.0,W,E,V*45
2024-07-24 03:16:44,$GNRMC,031644.00,A,3730.128884,N,12702.488762,E,11.1,69.0,240724,9.0,W,E,V*4A
2024-07-24 03:16:45,$GNRMC,031645.00,A,3730.130132,N,12702.492686,E,12.8,68.9,240724,9.0,W,E,V*44
2024-07-24 03:16:46,$GNRMC,031646.00,A,3730.131374,N,12702.496955,E,13.4,70.0,240724,9.0,W,E,V*4E
2024-07-24 03:16:47,$GNRMC,031647.00,A,3730.132682,N,12702.501320,E,13.7,68.9,240724,9.0,W,E,V*44
2024-07-24 03:16:48,$GNRMC,031648.00,A,3730.134051,N,12702.505825,E,14.3,69.0,240724,9.0,W,E,V*44
2024-07-24 03:16:49,$GNRMC,031649.00,A,3730.135892,N,12702.511190,E,15.7,68.7,240724,9.0,W,E,V*42
2024-07-24 03:16:50,$GNRMC,031650.00,A,3730.137514,N,12702.516495,E,16.3,68.8,240724,9.0,W,E,V*44
2024-07-24 03:16:51,$GNRMC,031651.00,A,3730.139216,N,12702.521854,E,16.6,68.6,240724,9.0,W,E,V*40
2024-07-24 03:16:52,$GNRMC,031652.00,A,3730.140942,N,12702.527380,E,17.4,68.5,240724,9.0,W,E,V*43
2024-07-24 03:16:53,$GNRMC,031653.00,A,3730.142745,N,12702.533178,E,18.4,68.6,240724,9.0,W,E,V*45
2024-07-24 03:16:54,$GNRMC,031654.00,A,3730.144494,N,12702.539279,E,18.9,68.8,240724,9.0,W,E,V*40
2024-07-24 03:16:55,$GNRMC,031655.00,A,3730.146413,N,12702.545562,E,19.5,68.7,240724,9.0,W,E,V*48
2024-07-24 03:16:56,$GNRMC,031656.00,A,3730.148327,N,12702.551765,E,19.8,68.5,240724,9.0,W,E,V*4A
2024-07-24 03:16:57,$GNRMC,031657.00,A,3730.150328,N,12702.558531,E,20.0,68.9,240724,9.0,W,E,V*49
2024-07-24 03:16:58,$GNRMC,031658.00,A,3730.152401,N,12702.565355,E,21.0,69.4,240724,9.0,W,E,V*4F
2024-07-24 03:16:59,$GNRMC,031659.00,A,3730.154334,N,12702.571911,E,21.0,69.7,240724,9.0,W,E,V*45
2024-07-24 03:17:00,$GNRMC,031700.00,A,3730.156500,N,12702.579074,E,22.0,69.6,240724,9.0,W,E,V*4B
2024-07-24 03:17:01,$GNRMC,031701.00,A,3730.158815,N,12702.586497,E,23.4,68.6,240724,9.0,W,E,V*40
2024-07-24 03:17:02,$GNRMC,031702.00,A,3730.161215,N,12702.594213,E,24.0,68.6,240724,9.0,W,E,V*49
2024-07-24 03:17:03,$GNRMC,031703.00,A,3730.163562,N,12702.601956,E,23.9,68.9,240724,9.0,W,E,V*49
2024-07-24 03:17:04,$GNRMC,031704.00,A,3730.165878,N,12702.609500,E,23.8,68.5,240724,9.0,W,E,V*44
2024-07-24 03:17:05,$GNRMC,031705.00,A,3730.168331,N,12702.617445,E,23.7,69.0,240724,9.0,W,E,V*4A
2024-07-24 03:17:06,$GNRMC,031706.00,A,3730.170728,N,12702.625236,E,23.8,69.0,240724,9.0,W,E,V*40
2024-07-24 03:17:07,$GNRMC,031707.00,A,3730.172975,N,12702.632815,E,23.4,69.0,240724,9.0,W,E,V*44
2024-07-24 03:17:08,$GNRMC,031708.00,A,3730.175300,N,12702.640442,E,23.3,68.9,240724,9.0,W,E,V*40
2024-07-24 03:17:09,$GNRMC,031709.00,A,3730.177556,N,12702.648140,E,23.5,69.0,240724,9.0,W,E,V*47
2024-07-24 03:17:10,$GNRMC,031710.00,A,3730.179716,N,12702.655878,E,23.5,69.2,240724,9.0,W,E,V*4B
2024-07-24 03:17:11,$GNRMC,031711.00,A,3730.181969,N,12702.663716,E,24.2,69.3,240724,9.0,W,E,V*48
2024-07-24 03:17:12,$GNRMC,031712.00,A,3730.184332,N,12702.671396,E,24.5,69.0,240724,9.0,W,E,V*41
2024-07-24 03:17:13,$GNRMC,031713.00,A,3730.186853,N,12702.679642,E,24.3,69.2,240724,9.0,W,E,V*4E
2024-07-24 03:17:14,$GNRMC,031714.00,A,3730.189146,N,12702.687488,E,24.2,69.4,240724,9.0,W,E,V*49
2024-07-24 03:17:15,$GNRMC,031715.00,A,3730.191603,N,12702.695675,E,25.1,69.3,240724,9.0,W,E,V*41
2024-07-24 03:17:16,$GNRMC,031716.00,A,3730.194098,N,12702.703859,E,25.3,69.3,240724,9.0,W,E,V*4F
2024-07-24 03:17:17,$GNRMC,031717.00,A,3730.196691,N,12702.712397,E,25.5,69.6,240724,9.0,W,E,V*49
2024-07-24 03:17:18,$GNRMC,031718.00,A,3730.199517,N,12702.720943,E,26.0,69.5,240724,9.0,W,E,V*43
2024-07-24 03:17:19,$GNRMC,031719.00,A,3730.202118,N,12702.729036,E,25.6,69.2,240724,9.0,W,E,V*48
2024-07-24 03:17:20,$GNRMC,031720.00,A,3730.204701,N,12702.737243,E,24.9,69.3,240724,9.0,W,E,V*4A
2024-07-24 03:17:21,$GNRMC,031721.00,A,3730.207236,N,12702.745383,E,24.0,69.2,240724,9.0,W,E,V*49
2024-07-24 03:17:22,$GNRMC,031722.00,A,3730.209489,N,12702.753051,E,23.3,69.3,240724,9.0,W,E,V*48
2024-07-24 03:17:23,$GNRMC,031723.00,A,3730.211789,N,12702.760251,E,22.7,69.1,240724,9.0,W,E,V*46
2024-07-24 03:17:24,$GNRMC,031724.00,A,3730.213964,N,12702.767530,E,21.7,69.3,240724,9.0,W,E,V*48
2024-07-24 03:17:25,$GNRMC,031725.00,A,3730.216213,N,12702.774504,E,21.1,69.0,240724,9.0,W,E,V*47
2024-07-24 03:17:26,$GNRMC,031726.00,A,3730.218134,N,12702.781082,E,20.3,69.0,240724,9.0,W,E,V*4E
2024-07-24 03:17:27,$GNRMC,031727.00,A,3730.220003,N,12702.787302,E,20.3,69.1,240724,9.0,W,E,V*4D
2024-07-24 03:17:28,$GNRMC,031728.00,A,3730.221854,N,12702.793574,E,19.7,69.2,240724,9.0,W,E,V*46
2024-07-24 03:17:29,$GNRMC,031729.00,A,3730.223664,N,12702.800071,E,18.9,69.2,240724,9.0,W,E,V*42
2024-07-24 03:17:30,$GNRMC,031730.00,A,3730.225430,N,12702.805919,E,18.0,69.0,240724,9.0,W,E,V*46
2024-07-24 03:17:31,$GNRMC,031731.00,A,3730.227222,N,12702.811547,E,17.6,69.0,240724,9.0,W,E,V*4B
2024-07-24 03:17:32,$GNRMC,031732.00,A,3730.229058,N,12702.817566,E,17.8,69.0,240724,9.0,W,E,V*42
2024-07-24 03:17:33,$GNRMC,031733.00,A,3730.230880,N,12702.823074,E,17.1,68.9,240724,9.0,W,E,V*46
2024-07-24 03:17:34,$GNRMC,031734.00,A,3730.232484,N,12702.828578,E,16.2,68.9,240724,9.0,W,E,V*4B
2024-07-24 03:17:35,$GNRMC,031735.00,A,3730.234039,N,12702.833404,E,15.1,68.9,240724,9.0,W,E,V*4E
2024-07-24 03:17:36,$GNRMC,031736.00,A,3730.235414,N,12702.838415,E,14.6,69.5,240724,9.0,W,E,V*47
2024-07-24 03:17:37,$GNRMC,031737.00,A,3730.236891,N,12702.843295,E,14.6,69.1,240724,9.0,W,E,V*42
2024-07-24 03:17:38,$GNRMC,031738.00,A,3730.238447,N,12702.848093,E,15.0,68.6,240724,9.0,W,E,V*4A
2024-07-24 03:17:39,$GNRMC,031739.00,A,3730.239707,N,12702.852705,E,14.3,68.5,240724,9.0,W,E,V*4F
2024-07-24 03:17:40,$GNRMC,031740.00,A,3730.241034,N,12702.857492,E,13.9,68.7,240724,9.0,W,E,V*4E
2024-07-24 03:17:41,$GNRMC,031741.00,A,3730.242203,N,12702.862080,E,13.2,68.7,240724,9.0,W,E,V*40
2024-07-24 03:17:42,$GNRMC,031742.00,A,3730.243448,N,12702.866274,E,12.7,68.7,240724,9.0,W,E,V*42
2024-07-24 03:17:43,$GNRMC,031743.00,A,3730.244640,N,12702.870516,E,12.8,68.5,240724,9.0,W,E,V*47
2024-07-24 03:17:44,$GNRMC,031744.00,A,3730.245926,N,12702.874486,E,11.8,68.4,240724,9.0,W,E,V*40
2024-07-24 03:17:45,$GNRMC,031745.00,A,3730.247299,N,12702.878391,E,10.9,68.5,240724,9.0,W,E,V*40
2024-07-24 03:17:46,$GNRMC,031746.00,A,3730.248493,N,12702.882124,E,10.1,68.5,240724,9.0,W,E,V*41
2024-07-24 03:17:47,$GNRMC,031747.00,A,3730.249494,N,12702.885239,E,9.2,68.4,240724,9.0,W,E,V*74
2024-07-24 03:17:48,$GNRMC,031748.00,A,3730.250477,N,12702.888212,E,8.6,68.2,240724,9.0,W,E,V*79
2024-07-24 03:17:49,$GNRMC,031749.00,A,3730.251318,N,12702.891188,E,8.1,68.6,240724,9.0,W,E,V*7C
2024-07-24 03:17:50,$GNRMC,031750.00,A,3730.252204,N,12702.893656,E,7.1,68.6,240724,9.0,W,E,V*72
2024-07-24 03:17:51,$GNRMC,031751.00,A,3730.252818,N,12702.895687,E,5.4,68.7,240724,9.0,W,E,V*78
2024-07-24 03:17:52,$GNRMC,031752.00,A,3730.253388,N,12702.897200,E,3.6,68.6,240724,9.0,W,E,V*74
2024-07-24 03:17:53,$GNRMC,031753.00,A,3730.253680,N,12702.898115,E,2.0,68.7,240724,9.0,W,E,V*76
2024-07-24 03:17:54,$GNRMC,031754.00,A,3730.253905,N,12702.898432,E,1.1,68.9,240724,9.0,W,E,V*7F
2024-07-24 03:17:55,$GNRMC,031755.00,A,3730.254084,N,12702.898608,E,0.3,68.9,240724,9.0,W,E,V*71
2024-07-24 03:17:56,$GNRMC,031756.00,A,3730.254084,N,12702.898600,E,0.0,,240724,9.0,W,E,V*60
2024-07-24 03:17:57,$GNRMC,031757.00,A,3730.254084,N,12702.898600,E,0.0,,240724,9.0,W,E,V*61
2024-07-24 03:17:58,$GNRMC,031758.00,A,3730.254084,N,12702.898600,E,0.0,,240724,9.0,W,E,V*6E
2024-07-24 03:17:59,$GNRMC,031759.00,A,3730.254084,N,12702.898600,E,0.0,,240724,9.0,W,E,V*6F
2024-07-24 03:18:00,$GNRMC,031800.00,A,3730.254084,N,12702.898600,E,0.0,,240724,9.0,W,E,V*6C
2024-07-24 03:18:01,$GNRMC,031801.00,A,3730.254084,N,12702.898600,E,0.0,,240724,9.0,W,E,V*6D
2024-07-24 03:18:02,$GNRMC,031802.00,A,3730.254084,N,12702.898600,E,0.0,,240724,9.0,W,E,V*6E
2024-07-24 03:18:03,$GNRMC,031803.00,A,3730.254084,N,12702.898600,E,0.0,,240724,9.0,W,E,V*6F
2024-07-24 03:18:04,$GNRMC,031804.00,A,3730.254084,N,12702.898600,E,0.0,,240724,9.0,W,E,V*68
2024-07-24 03:18:05,$GNRMC,031805.00,A,3730.254084,N,12702.898600,E,0.0,,240724,9.0,W,E,V*69
2024-07-24 03:18:06,$GNRMC,031806.00,A,3730.254084,N,12702.898600,E,0.0,,240724,9.0,W,E,V*6A
2024-07-24 03:18:07,$GNRMC,031807.00,A,3730.254084,N,12702.898600,E,0.0,,240724,9.0,W,E,V*6B
2024-07-24 03:18:08,$GNRMC,031808.00,A,3730.254084,N,12702.898600,E,0.0,,240724,9.0,W,E,V*64
2024-07-24 03:18:09,$GNRMC,031809.00,A,3730.254084,N,12702.898600,E,0.0,,240724,9.0,W,E,V*65
2024-07-24 03:18:10,$GNRMC,031810.00,A,3730.254084,N,12702.898600,E,0.0,,240724,9.0,W,E,V*6D
2024-07-24 03:18:11,$GNRMC,031811.00,A,3730.254084,N,12702.898600,E,0.0,,240724,9.0,W,E,V*6C
2024-07-24 03:18:12,$GNRMC,031812.00,A,3730.254699,N,12702.899666,E,2.4,68.3,240724,9.0,W,E,V*71
2024-07-24 03:18:13,$GNRMC,031813.00,A,3730.255051,N,12702.900391,E,2.6,67.7,240724,9.0,W,E,V*76
2024-07-24 03:18:14,$GNRMC,031814.00,A,3730.255340,N,12702.901360,E,3.1,67.7,240724,9.0,W,E,V*7B
2024-07-24 03:18:15,$GNRMC,031815.00,A,3730.255670,N,12702.902237,E,2.6,67.6,240724,9.0,W,E,V*7B
2024-07-24 03:18:16,$GNRMC,031816.00,A,3730.255868,N,12702.902938,E,1.6,67.8,240724,9.0,W,E,V*76
2024-07-24 03:18:17,$GNRMC,031817.00,A,3730.255956,N,12702.903290,E,0.5,68.0,240724,9.0,W,E,V*76
2024-07-24 03:18:18,$GNRMC,031818.00,A,3730.255952,N,12702.903272,E,0.0,,240724,9.0,W,E,V*64
2024-07-24 03:18:19,$GNRMC,031819.00,A,3730.255952,N,12702.903272,E,0.0,,240724,9.0,W,E,V*65
2024-07-24 03:18:20,$GNRMC,031820.00,A,3730.255952,N,12702.903272,E,0.0,,240724,9.0,W,E,V*6F
2024-07-24 03:18:21,$GNRMC,031821.00,A,3730.255952,N,12702.903272,E,0.0,,240724,9.0,W,E,V*6E
2024-07-24 03:18:22,$GNRMC,031822.00,A,3730.255952,N,12702.903272,E,0.0,,240724,9.0,W,E,V*6D
2024-07-24 03:18:23,$GNRMC,031823.00,A,3730.255952,N,12702.903272,E,0.0,,240724,9.0,W,E,V*6C
2024-07-24 03:18:24,$GNRMC,031824.00,A,3730.255952,N,12702.903272,E,0.0,,240724,9.0,W,E,V*6B
2024-07-24 03:18:25,$GNRMC,031825.00,A,3730.255952,N,12702.903272,E,0.0,,240724,9.0,W,E,V*6A
2024-07-24 03:18:26,$GNRMC,031826.00,A,3730.255952,N,12702.903272,E,0.0,,240724,9.0,W,E,V*69
2024-07-24 03:18:27,$GNRMC,031827.00,A,3730.255952,N,12702.903272,E,0.0,,240724,9.0,W,E,V*68
2024-07-24 03:18:28,$GNRMC,031828.00,A,3730.255952,N,12702.903272,E,0.0,,240724,9.0,W,E,V*67
2024-07-24 03:18:29,$GNRMC,031829.00,A,3730.255952,N,12702.903272,E,0.0,,240724,9.0,W,E,V*66
2024-07-24 03:18:30,$GNRMC,031830.00,A,3730.255952,N,12702.903272,E,0.0,,240724,9.0,W,E,V*6E
2024-07-24 03:18:31,$GNRMC,031831.00,A,3730.255952,N,12702.903272,E,0.0,,240724,9.0,W,E,V*6F
2024-07-24 03:18:32,$GNRMC,031832.00,A,3730.255952,N,12702.903272,E,0.0,,240724,9.0,W,E,V*6C
2024-07-24 03:18:33,$GNRMC,031833.00,A,3730.255952,N,12702.903272,E,0.0,,240724,9.0,W,E,V*6D
2024-07-24 03:18:34,$GNRMC,031834.00,A,3730.255952,N,12702.903272,E,0.0,,240724,9.0,W,E,V*6A
2024-07-24 03:18:35,$GNRMC,031835.00,A,3730.255952,N,12702.903272,E,0.0,,240724,9.0,W,E,V*6B
2024-07-24 03:18:36,$GNRMC,031836.00,A,3730.255952,N,12702.903272,E,0.0,,240724,9.0,W,E,V*68
2024-07-24 03:18:37,$GNRMC,031837.00,A,3730.255952,N,12702.903272,E,0.0,,240724,9.0,W,E,V*69
2024-07-24 03:18:38,$GNRMC,031838.00,A,3730.255952,N,12702.903272,E,0.0,,240724,9.0,W,E,V*66
2024-07-24 03:18:39,$GNRMC,031839.00,A,3730.255952,N,12702.903272,E,0.0,,240724,9.0,W,E,V*67
2024-07-24 03:18:40,$GNRMC,031840.00,A,3730.255952,N,12702.903272,E,0.0,,240724,9.0,W,E,V*69
2024-07-24 03:18:41,$GNRMC,031841.00,A,3730.255952,N,12702.903272,E,0.0,,240724,9.0,W,E,V*68
2024-07-24 03:18:42,$GNRMC,031842.00,A,3730.255952,N,12702.903272,E,0.0,,240724,9.0,W,E,V*6B
2024-07-24 03:18:43,$GNRMC,031843.00,A,3730.255952,N,12702.903272,E,0.0,,240724,9.0,W,E,V*6A
2024-07-24 03:18:44,$GNRMC,031844.00,A,3730.255952,N,12702.903272,E,0.0,,240724,9.0,W,E,V*6D
2024-07-24 03:18:45,$GNRMC,031845.00,A,3730.255952,N,12702.903272,E,0.0,,240724,9.0,W,E,V*6C
2024-07-24 03:18:46,$GNRMC,031846.00,A,3730.255952,N,12702.903272,E,0.0,,240724,9.0,W,E,V*6F
2024-07-24 03:18:47,$GNRMC,031847.00,A,3730.255952,N,12702.903272,E,0.0,,240724,9.0,W,E,V*6E
2024-07-24 03:18:48,$GNRMC,031848.00,A,3730.255952,N,12702.903272,E,0.0,,240724,9.0,W,E,V*61
2024-07-24 03:18:49,$GNRMC,031849.00,A,3730.255952,N,12702.903272,E,0.0,,240724,9.0,W,E,V*60
2024-07-24 03:18:50,$GNRMC,031850.00,A,3730.255952,N,12702.903272,E,0.0,,240724,9.0,W,E,V*68
2024-07-24 03:18:51,$GNRMC,031851.00,A,3730.255952,N,12702.903272,E,0.0,,240724,9.0,W,E,V*69
2024-07-24 03:18:52,$GNRMC,031852.00,A,3730.255952,N,12702.903272,E,0.0,,240724,9.0,W,E,V*6A
2024-07-24 03:18:53,$GNRMC,031853.00,A,3730.255952,N,12702.903272,E,0.0,,240724,9.0,W,E,V*6B
2024-07-24 03:18:54,$GNRMC,031854.00,A,3730.255952,N,12702.903272,E,0.0,,240724,9.0,W,E,V*6C
2024-07-24 03:18:55,$GNRMC,031855.00,A,3730.255952,N,12702.903272,E,0.0,,240724,9.0,W,E,V*6D
2024-07-24 03:18:56,$GNRMC,031856.00,A,3730.255952,N,12702.903272,E,0.0,,240724,9.0,W,E,V*6E
2024-07-24 03:18:57,$GNRMC,031857.00,A,3730.255952,N,12702.903272,E,0.0,,240724,9.0,W,E,V*6F
2024-07-24 03:18:58,$GNRMC,031858.00,A,3730.255952,N,12702.903272,E,0.0,,240724,9.0,W,E,V*60
2024-07-24 03:18:59,$GNRMC,031859.00,A,3730.255952,N,12702.903272,E,0.0,,240724,9.0,W,E,V*61
2024-07-24 03:19:00,$GNRMC,031900.00,A,3730.255952,N,12702.903272,E,0.0,,240724,9.0,W,E,V*6C
2024-07-24 03:19:01,$GNRMC,031901.00,A,3730.255952,N,12702.903272,E,0.0,,240724,9.0,W,E,V*6D
2024-07-24 03:19:02,$GNRMC,031902.00,A,3730.255952,N,12702.903272,E,0.0,,240724,9.0,W,E,V*6E
2024-07-24 03:19:03,$GNRMC,031903.00,A,3730.255952,N,12702.903272,E,0.0,,240724,9.0,W,E,V*6F
2024-07-24 03:19:04,$GNRMC,031904.00,A,3730.255952,N,12702.903272,E,0.0,,240724,9.0,W,E,V*68
2024-07-24 03:19:05,$GNRMC,031905.00,A,3730.255952,N,12702.903272,E,0.0,,240724,9.0,W,E,V*69
2024-07-24 03:19:06,$GNRMC,031906.00,A,3730.255952,N,12702.903272,E,0.0,,240724,9.0,W,E,V*6A
2024-07-24 03:19:07,$GNRMC,031907.00,A,3730.255952,N,12702.903272,E,0.0,,240724,9.0,W,E,V*6B
2024-07-24 03:19:08,$GNRMC,031908.00,A,3730.256235,N,12702.904160,E,2.6,68.6,240724,9.0,W,E,V*78
2024-07-24 03:19:09,$GNRMC,031909.00,A,3730.256805,N,12702.906023,E,5.1,69.1,240724,9.0,W,E,V*72
2024-07-24 03:19:10,$GNRMC,031910.00,A,3730.257621,N,12702.908927,E,8.0,70.1,240724,9.0,W,E,V*74
2024-07-24 03:19:11,$GNRMC,031911.00,A,3730.258572,N,12702.912055,E,10.5,70.0,240724,9.0,W,E,V*45
2024-07-24 03:19:12,$GNRMC,031912.00,A,3730.259730,N,12702.915914,E,12.7,69.8,240724,9.0,W,E,V*48
2024-07-24 03:19:13,$GNRMC,031913.00,A,3730.261146,N,12702.920577,E,14.7,69.3,240724,9.0,W,E,V*47
2024-07-24 03:19:14,$GNRMC,031914.00,A,3730.262642,N,12702.925758,E,16.9,69.6,240724,9.0,W,E,V*43
2024-07-24 03:19:15,$GNRMC,031915.00,A,3730.264394,N,12702.931413,E,17.5,69.3,240724,9.0,W,E,V*4B
