$GPGSV,1,1,04,05,37,263,33,11,70,357,39,12,14,254,35,20,61,294,33,1*63
$GPGSV,1,1,02,09,32,049,24,11,70,357,23,8*6B
$GLGSV,1,1,03,22,44,332,34,21,68,088,29,07,56,212,32,1*4C
$GAGSV,1,1,02,26,28,100,26,33,69,047,37,7*72
$GAGSV,1,1,01,33,69,047,23,1*49
$GQGSV,1,1,02,03,74,122,27,04,71,161,33,1*67
$GQGSV,1,1,01,04,71,161,28,8*53
$GBGSV,2,1,07,38,65,311,32,34,75,300,33,22,32,045,27,21,88,043,33,1*7F
$GBGSV,2,2,07,13,44,279,29,11,49,316,34,10,49,231,28,1*4C
$GBGSV,1,1,04,21,88,043,27,22,32,045,23,34,75,300,26,38,65,311,23,5*7E
$GNGSA,A,3,05,09,11,12,20,,,,,,,,0.9,0.6,0.6,1*35
$GNGSA,A,3,70,71,85,86,,,,,,,,,0.9,0.6,0.6,2*39
$GNGSA,A,3,26,31,33,,,,,,,,,,0.9,0.6,0.6,3*3C
$GNGSA,A,3,10,11,12,13,21,22,34,38,40,42,43,,0.9,0.6,0.6,4*37
$GNGSA,A,3,03,04,,,,,,,,,,,0.9,0.6,0.6,5*3B
$GNVTG,60.3,T,69.3,M,8.3,N,15.3,K,A*08
$GNRMC,031141.60,A,3729.879389,N,12701.700294,E,8.3,60.3,240724,9.0,W,A,V*75
$GNGGA,031141.60,3729.879389,N,12701.700294,E,1,12,0.6,15.4,M,23.2,M,,*42
$GNGSA,A,3,05,06,09,11,12,20,,,,,,,0.9,0.6,0.6,1*33
$GNGSA,A,3,70,71,85,86,,,,,,,,,0.9,0.6,0.6,2*39
$GNGSA,A,3,26,31,33,,,,,,,,,,0.9,0.6,0.6,3*3C
$GNGSA,A,3,10,11,12,13,21,22,34,38,40,42,43,,0.9,0.6,0.6,4*37
$GNGSA,A,3,03,04,,,,,,,,,,,0.9,0.6,0.6,5*3B
$GNVTG,60.1,T,69.1,M,7.4,N,13.8,K,A*0D
$GNRMC,031143.00,A,3729.881829,N,12701.703513,E,7.4,60.1,240724,9.0,W,A,V*76
$GNGGA,031143.00,3729.881829,N,12701.703513,E,1,12,0.6,16.9,M,23.2,M,,*45
$GPGSV,2,1,07,05,37,263,32,06,49,090,29,09,32,049,25,11,70,357,37,1*6E
$GPGSV,2,2,07,12,14,254,35,13,15,189,26,20,61,294,33,1*58
$GPGSV,1,1,03,06,49,090,24,09,32,049,23,11,70,357,25,8*5F
$GLGSV,1,1,04,06,69,030,27,22,44,332,35,21,68,088,35,07,56,212,35,1*7F
$GAGSV,1,1,02,26,28,100,18,33,69,047,38,7*70
$GAGSV,1,1,01,33,69,047,23,1*49
$GQGSV,1,1,02,03,74,122,27,04,71,161,28,1*6D
$GQGSV,1,1,01,04,71,161,22,8*59
$GBGSV,3,1,11,43,26,314,26,42,38,225,23,40,46,195,25,38,65,311,29,1*70
$GBGSV,3,2,11,34,75,300,31,22,32,045,24,21,88,043,34,13,44,279,28,1*72
$GBGSV,3,3,11,11,49,316,35,10,49,231,30,08,51,288,26,1*4C
$GBGSV,2,1,05,21,88,043,34,34,75,300,31,38,65,311,30,42,38,225,23,3*74
$GBGSV,2,2,05,43,26,314,22,3*44
$GBGSV,1,1,04,21,88,043,27,22,32,045,23,34,75,300,25,38,65,311,22,5*7C
$GNGSA,A,3,05,06,09,11,12,20,,,,,,,0.8,0.6,0.6,1*32
$GNGSA,A,3,70,71,85,86,,,,,,,,,0.8,0.6,0.6,2*38
$GNGSA,A,3,26,31,33,,,,,,,,,,0.8,0.6,0.6,3*3D
$GNGSA,A,3,10,11,12,13,21,22,34,38,40,42,43,,0.8,0.6,0.6,4*36
$GNGSA,A,3,03,04,,,,,,,,,,,0.8,0.6,0.6,5*3A
$GNVTG,65.1,T,74.1,M,9.1,N,16.9,K,A*0B
$GNRMC,031144.00,A,3729.883336,N,12701.706214,E,9.1,65.1,240724,9.0,W,A,V*7D
$GNGGA,031144.00,3729.883336,N,12701.706214,E,1,12,0.6,17.4,M,23.2,M,,*4C
$GPGSV,2,1,07,05,37,263,33,06,49,090,24,09,32,049,25,11,70,357,39,1*6C
$GPGSV,2,2,07,12,14,254,33,13,15,189,26,20,61,294,31,1*5C
$GPGSV,1,1,03,06,49,090,24,09,32,049,23,11,70,357,24,8*5E
$GLGSV,1,1,04,06,69,030,27,22,44,332,32,21,68,088,34,07,56,212,35,1*79
$GAGSV,1,1,02,26,28,100,18,33,69,047,37,7*7F
$GAGSV,1,1,01,33,69,047,18,1*41
$GQGSV,1,1,02,03,74,122,27,04,71,161,28,1*6D
$GQGSV,1,1,01,04,71,161,22,8*59
$GBGSV,3,1,12,43,26,314,26,42,38,225,22,40,46,195,23,38,65,311,33,1*7F
$GBGSV,3,2,12,34,75,300,29,22,32,045,21,21,88,043,35,13,44,279,29,1*7D
$GBGSV,3,3,12,11,49,316,31,10,49,231,32,08,51,288,30,07,45,212,23,1*78
$GBGSV,2,1,06,21,88,043,34,34,75,300,30,38,65,311,31,42,38,225,21,3*75
$GBGSV,2,2,06,43,26,314,24,44,46,142,26,3*70
$GBGSV,2,1,05,21,88,043,27,22,32,045,23,34,75,300,26,38,65,311,21,5*7E
$GBGSV,2,2,05,44,46,142,22,5*42
$GNGSA,A,3,05,06,09,11,12,20,,,,,,,0.8,0.6,0.6,1*32
$GNGSA,A,3,70,71,85,86,,,,,,,,,0.8,0.6,0.6,2*38
$GNGSA,A,3,26,31,33,,,,,,,,,,0.8,0.6,0.6,3*3D
$GNGSA,A,3,07,10,11,12,13,21,22,34,38,40,42,43,0.8,0.6,0.6,4*31
$GNGSA,A,3,03,04,,,,,,,,,,,0.8,0.6,0.6,5*3A
$GNVTG,63.8,T,72.8,M,11.3,N,21.0,K,A*3D
$GNRMC,031145.00,A,3729.885161,N,12701.709860,E,11.3,63.8,240724,9.0,W,A,V*48
$GNGGA,031145.00,3729.885161,N,12701.709860,E,1,12,0.6,18.6,M,23.2,M,,*40
$GPGSV,2,1,07,05,37,263,31,06,49,090,24,09,32,049,21,11,70,357,37,1*64
$GPGSV,2,2,07,12,14,254,34,13,15,189,26,20,61,294,29,1*52
$GPGSV,1,1,03,06,49,090,24,09,32,049,23,11,70,357,26,8*5C
$GLGSV,1,1,04,06,69,030,27,22,44,332,31,21,68,088,32,07,56,212,32,1*7B
$GAGSV,1,1,02,26,28,100,18,33,69,047,33,7*7B
$GAGSV,1,1,01,33,69,047,18,1*41
$GQGSV,1,1,01,04,71,161,28,1*5A
$GQGSV,1,1,01,04,71,161,22,8*59
$GBGSV,4,1,15,59,45,159,24,44,46,142,26,43,26,314,22,42,38,225,23,1*7C
$GBGSV,4,2,15,40,46,195,23,38,65,311,34,34,75,300,31,22,32,045,21,1*75
$GBGSV,4,3,15,21,88,043,30,13,44,279,30,11,49,316,30,10,49,231,28,1*73
$GBGSV,4,4,15,08,51,288,30,07,45,212,26,03,44,206,27,1*4E
$GBGSV,2,1,08,21,88,043,31,22,32,045,18,34,75,300,31,38,65,311,30,3*7C
$GBGSV,2,2,08,40,46,195,19,42,38,225,21,43,26,314,24,44,46,142,26,3*76
$GBGSV,2,1,05,21,88,043,28,22,32,045,23,34,75,300,28,38,65,311,21,5*7F
$GBGSV,2,2,05,44,46,142,24,5*44
$GNGSA,A,3,05,06,09,11,12,20,,,,,,,0.8,0.5,0.6,1*31
$GNGSA,A,3,70,71,85,86,,,,,,,,,0.8,0.5,0.6,2*3B
$GNGSA,A,3,26,33,,,,,,,,,,,0.8,0.5,0.6,3*3C
$GNGSA,A,3,03,07,10,11,13,21,22,34,38,40,42,43,0.8,0.5,0.6,4*32
$GNGSA,A,3,03,04,,,,,,,,,,,0.8,0.5,0.6,5*39
$GNVTG,66.5,T,75.5,M,13.2,N,24.4,K,A*3D
$GNRMC,031146.00,A,3729.887265,N,12701.713928,E,13.2,66.5,240724,9.0,W,A,V*43
$GNGGA,031146.00,3729.887265,N,12701.713928,E,1,12,0.5,19.8,M,23.2,M,,*4C
$GPGSV,2,1,07,05,37,263,26,06,49,090,22,09,32,049,25,11,70,357,37,1*60
$GPGSV,2,2,07,12,14,254,34,13,15,189,26,20,61,294,29,1*52
$GPGSV,1,1,03,06,49,090,24,09,32,049,23,11,70,357,25,8*5F
$GLGSV,1,1,04,06,69,030,27,22,44,332,35,21,68,088,32,07,56,212,31,1*7C
$GAGSV,1,1,02,26,28,100,24,33,69,047,34,7*73
$GAGSV,1,1,01,33,69,047,20,1*4A
$GQGSV,1,1,01,04,71,161,28,1*5A
$GQGSV,1,1,01,04,71,161,22,8*59
$GBGSV,4,1,16,59,45,159,24,44,46,142,26,43,26,314,22,42,38,225,23,1*7F
$GBGSV,4,2,16,40,46,195,24,38,65,311,33,34,75,300,29,22,32,045,21,1*7F
$GBGSV,4,3,16,21,88,043,29,13,44,279,30,11,49,316,31,10,49,231,27,1*76
$GBGSV,4,4,16,08,51,288,29,07,45,212,25,03,44,206,27,01,44,152,26,1*75
$GBGSV,2,1,08,21,88,043,30,22,32,045,23,34,75,300,27,38,65,311,31,3*73
$GBGSV,2,2,08,40,46,195,19,42,38,225,21,43,26,314,24,44,46,142,24,3*74
$GBGSV,2,1,05,21,88,043,26,22,32,045,23,34,75,300,26,38,65,311,21,5*7F
$GBGSV,2,2,05,44,46,142,24,5*44
$GNGSA,A,3,05,06,09,11,12,20,,,,,,,0.8,0.5,0.6,1*31
$GNGSA,A,3,70,71,85,86,,,,,,,,,0.8,0.5,0.6,2*3B
$GNGSA,A,3,26,33,,,,,,,,,,,0.8,0.5,0.6,3*3C
$GNGSA,A,3,03,07,10,11,13,21,22,34,38,40,42,43,0.8,0.5,0.6,4*32
$GNGSA,A,3,03,04,,,,,,,,,,,0.8,0.5,0.6,5*39
$GNVTG,68.6,T,77.6,M,11.8,N,21.9,K,A*31
$GNRMC,031147.00,A,3729.888944,N,12701.717874,E,11.8,68.6,240724,9.0,W,A,V*4C
$GNGGA,031147.00,3729.888944,N,12701.717874,E,1,12,0.5,19.9,M,23.2,M,,*47
$GPGSV,3,1,09,05,37,263,25,06,49,090,23,07,10,095,19,09,32,049,25,1*6D
$GPGSV,3,2,09,11,70,357,39,12,14,254,34,13,15,189,26,19,26,161,19,1*62
$GPGSV,3,3,09,20,61,294,31,1*55
$GPGSV,1,1,03,06,49,090,24,09,32,049,23,11,70,357,24,8*5E
$GAGSV,1,1,03,19,45,173,19,26,28,100,24,33,69,047,36,7*44
$GAGSV,1,1,01,33,69,047,22,1*48
$GQGSV,1,1,01,04,71,161,22,1*50
$GQGSV,1,1,01,04,71,161,22,8*59
$GBGSV,5,1,18,60,26,242,24,59,45,159,31,44,46,142,27,43,26,314,22,1*7C
$GBGSV,5,2,18,42,38,225,24,40,46,195,23,38,65,311,32,34,75,300,30,1*73
$GBGSV,5,3,18,22,32,045,21,21,88,043,33,13,44,279,31,12,72,138,26,1*7A
$GBGSV,5,4,18,11,49,316,31,10,49,231,25,08,51,288,30,07,45,212,25,1*73
$GBGSV,5,5,18,03,44,206,27,01,44,152,26,1*7E
$GBGSV,2,1,08,21,88,043,33,22,32,045,23,34,75,300,29,38,65,311,29,3*77
$GBGSV,2,2,08,40,46,195,20,42,38,225,22,43,26,314,24,44,46,142,23,3*7A
$GBGSV,2,1,05,21,88,043,28,22,32,045,23,34,75,300,23,38,65,311,21,5*74
$GBGSV,2,2,05,44,46,142,20,5*40
$GNGSA,A,3,05,06,09,11,12,19,20,,,,,,0.8,0.5,0.6,1*39
$GNGSA,A,3,70,71,85,86,,,,,,,,,0.8,0.5,0.6,2*3B
$GNGSA,A,3,19,26,33,,,,,,,,,,0.8,0.5,0.6,3*34
$GNGSA,A,3,03,07,10,11,12,13,21,22,34,38,40,42,0.8,0.5,0.6,4*36
$GNGSA,A,3,04,,,,,,,,,,,,0.8,0.5,0.6,5*3A
$GNVTG,66.0,T,75.0,M,13.2,N,24.5,K,A*3C
$GNRMC,031148.00,A,3729.890676,N,12701.721774,E,13.2,66.0,240724,9.0,W,A,V*4E
$GNGGA,031148.00,3729.890676,N,12701.721774,E,1,12,0.5,19.7,M,23.2,M,,*4B
$GPGSV,3,1,09,05,37,263,25,06,49,090,23,07,10,095,19,09,32,049,22,1*6A
$GPGSV,3,2,09,11,70,357,38,12,14,254,30,13,15,189,26,19,26,161,32,1*6E
$GPGSV,3,3,09,20,61,294,32,1*56
$GPGSV,1,1,03,06,49,090,24,09,32,049,23,11,70,357,22,8*58
$GAGSV,1,1,03,19,45,173,30,26,28,100,24,33,69,047,37,7*4E
$GAGSV,1,1,01,33,69,047,22,1*48
$GQGSV,1,1,01,04,71,161,34,1*57
$GQGSV,1,1,01,04,71,161,18,8*50
$GBGSV,5,1,18,60,26,242,24,59,45,159,31,44,46,142,27,43,26,314,22,1*7C
$GBGSV,5,2,18,42,38,225,24,40,46,195,23,38,65,311,32,34,75,300,30,1*73
$GBGSV,5,3,18,22,32,045,21,21,88,043,33,13,44,279,31,12,72,138,34,1*79
$GBGSV,5,4,18,11,49,316,28,10,49,231,29,08,51,288,28,07,45,212,22,1*79
$GBGSV,5,5,18,03,44,206,27,01,44,152,26,1*7E
$GBGSV,2,1,08,21,88,043,32,22,32,045,23,34,75,300,30,38,65,311,30,3*76
$GBGSV,2,2,08,40,46,195,20,42,38,225,22,43,26,314,24,44,46,142,22,3*7B
$GBGSV,2,1,05,21,88,043,28,22,32,045,23,34,75,300,27,38,65,311,21,5*70
$GBGSV,2,2,05,44,46,142,20,5*40
$GNGSA,A,3,05,06,09,11,12,19,20,,,,,,0.8,0.5,0.6,1*39
$GNGSA,A,3,70,71,85,86,,,,,,,,,0.8,0.5,0.6,2*3B
$GNGSA,A,3,19,26,33,,,,,,,,,,0.8,0.5,0.6,3*34
$GNGSA,A,3,03,07,10,11,12,13,21,22,34,38,40,42,0.8,0.5,0.6,4*36
$GNGSA,A,3,04,,,,,,,,,,,,0.8,0.5,0.6,5*3A
$GNVTG,68.9,T,77.9,M,15.9,N,29.5,K,A*30
$GNRMC,031149.00,A,3729.892781,N,12701.726449,E,15.9,68.9,240724,9.0,W,A,V*44
$GNGGA,031149.00,3729.892781,N,12701.726449,E,1,12,0.5,20.1,M,23.2,M,,*47
$GPGSV,3,1,09,05,37,263,24,06,49,090,24,07,10,095,19,09,32,049,22,1*6C
$GPGSV,3,2,09,11,70,357,39,12,14,254,31,13,15,189,26,19,26,161,24,1*69
$GPGSV,3,3,09,20,61,294,31,1*55
$GPGSV,1,1,03,06,49,090,22,09,32,049,23,11,70,357,22,8*5E
$GAGSV,1,1,03,19,45,173,25,26,28,100,24,33,69,047,36,7*4B
$GAGSV,1,1,01,33,69,047,22,1*48
$GQGSV,1,1,01,04,71,161,32,1*51
$GQGSV,1,1,01,04,71,161,23,8*58
$GBGSV,5,1,18,60,26,242,24,59,45,159,31,44,46,142,27,43,26,314,22,1*7C
$GBGSV,5,2,18,42,38,225,24,40,46,195,23,38,65,311,32,34,75,300,30,1*73
$GBGSV,5,3,18,22,32,045,21,21,88,043,33,13,44,279,30,12,72,138,30,1*7C
$GBGSV,5,4,18,11,49,316,28,10,49,231,29,08,51,288,29,07,45,212,22,1*78
$GBGSV,5,5,18,03,44,206,27,01,44,152,26,1*7E
$GBGSV,2,1,08,21,88,043,33,22,32,045,23,34,75,300,28,38,65,311,28,3*77
$GBGSV,2,2,08,40,46,195,20,42,38,225,22,43,26,314,24,44,46,142,22,3*7B
$GBGSV,2,1,05,21,88,043,28,22,32,045,23,34,75,300,26,38,65,311,21,5*71
$GBGSV,2,2,05,44,46,142,20,5*40
$GNGSA,A,3,05,06,09,11,12,19,20,,,,,,0.8,0.5,0.7,1*38
$GNGSA,A,3,71,85,86,,,,,,,,,,0.8,0.5,0.7,2*3D
$GNGSA,A,3,19,33,,,,,,,,,,,0.8,0.5,0.7,3*31
$GNGSA,A,3,03,07,10,11,12,13,21,22,34,38,40,42,0.8,0.5,0.7,4*37
$GNGSA,A,3,04,,,,,,,,,,,,0.8,0.5,0.7,5*3B
$GNVTG,62.2,T,71.2,M,18.7,N,34.7,K,A*31
$GNRMC,031150.00,A,3729.895295,N,12701.731983,E,18.7,62.2,240724,9.0,W,A,V*44
$GNGGA,031150.00,3729.895295,N,12701.731983,E,1,12,0.5,19.8,M,23.2,M,,*46
$GPGSV,3,1,09,05,37,263,25,06,49,090,31,07,10,095,19,09,32,049,22,1*69
$GPGSV,3,2,09,11,70,357,38,12,14,254,28,13,15,189,26,19,26,161,24,1*60
$GPGSV,3,3,09,20,61,294,32,1*56
$GPGSV,1,1,03,06,49,090,30,09,32,049,23,11,70,357,22,8*5D
$GAGSV,1,1,03,19,45,173,25,26,28,100,24,33,69,047,35,7*48
$GAGSV,1,1,01,33,69,047,23,1*49
$GQGSV,1,1,01,04,71,161,32,1*51
$GQGSV,1,1,01,04,71,161,23,8*58
$GBGSV,5,1,18,60,26,242,24,59,45,159,31,44,46,142,27,43,26,314,22,1*7C
$GBGSV,5,2,18,42,38,225,24,40,46,195,23,38,65,311,32,34,75,300,30,1*73
$GBGSV,5,3,18,22,32,045,21,21,88,043,33,13,44,279,29,12,72,138,31,1*75
$GBGSV,5,4,18,11,49,316,28,10,49,231,28,08,51,288,25,07,45,212,22,1*75
$GBGSV,5,5,18,03,44,206,27,01,44,152,26,1*7E
$GBGSV,2,1,08,21,88,043,31,22,32,045,23,34,75,300,31,38,65,311,30,3*74
$GBGSV,2,2,08,40,46,195,27,42,38,225,26,43,26,314,24,44,46,142,24,3*7E
$GBGSV,2,1,05,21,88,043,28,22,32,045,23,34,75,300,26,38,65,311,22,5*72
$GBGSV,2,2,05,44,46,142,20,5*40
$GNGSA,A,3,05,06,09,11,12,19,20,,,,,,0.9,0.5,0.7,1*39
$GNGSA,A,3,71,85,86,,,,,,,,,,0.9,0.5,0.7,2*3C
$GNGSA,A,3,19,33,,,,,,,,,,,0.9,0.5,0.7,3*30
$GNGSA,A,3,03,07,10,11,12,13,21,22,34,38,40,42,0.9,0.5,0.7,4*36
$GNGSA,A,3,04,,,,,,,,,,,,0.9,0.5,0.7,5*3A
$GNVTG,62.0,T,71.0,M,21.0,N,38.9,K,A*3E
$GNRMC,031151.00,A,3729.897945,N,12701.738303,E,21.0,62.0,240724,9.0,W,A,V*45
$GNGGA,031151.00,3729.897945,N,12701.738303,E,1,12,0.5,19.7,M,23.2,M,,*47
$GPGSV,3,1,09,05,37,263,24,06,49,090,28,07,10,095,19,09,32,049,22,1*60
$GPGSV,3,2,09,11,70,357,37,12,14,254,27,13,15,189,26,19,26,161,24,1*60
$GPGSV,3,3,09,20,61,294,32,1*56
$GPGSV,1,1,03,06,49,090,29,09,32,049,23,11,70,357,22,8*55
$GAGSV,1,1,03,19,45,173,23,26,28,100,23,33,69,047,35,7*49
$GAGSV,1,1,01,33,69,047,21,1*4B
$GQGSV,1,1,02,03,74,122,28,04,71,161,33,1*68
$GQGSV,1,1,01,04,71,161,23,8*58
$GBGSV,5,1,18,60,26,242,24,59,45,159,31,44,46,142,27,43,26,314,22,1*7C
$GBGSV,5,2,18,42,38,225,24,40,46,195,23,38,65,311,32,34,75,300,30,1*73
$GBGSV,5,3,18,22,32,045,21,21,88,043,33,13,44,279,30,12,72,138,35,1*79
$GBGSV,5,4,18,11,49,316,28,10,49,231,31,08,51,288,26,07,45,212,22,1*7E
$GBGSV,5,5,18,03,44,206,27,01,44,152,26,1*7E
$GBGSV,2,1,08,21,88,043,32,22,32,045,23,34,75,300,31,38,65,311,30,3*77
$GBGSV,2,2,08,40,46,195,27,42,38,225,24,43,26,314,24,44,46,142,24,3*7C
$GBGSV,2,1,05,21,88,043,28,22,32,045,23,34,75,300,25,38,65,311,22,5*71
$GBGSV,2,2,05,44,46,142,20,5*40
$GNGSA,A,3,05,06,09,11,12,19,20,,,,,,0.9,0.6,0.7,1*3A
$GNGSA,A,3,71,85,86,,,,,,,,,,0.9,0.6,0.7,2*3F
$GNGSA,A,3,19,33,,,,,,,,,,,0.9,0.6,0.7,3*33
$GNGSA,A,3,07,10,11,12,13,21,22,34,38,40,42,44,0.9,0.6,0.7,4*36
$GNGSA,A,3,03,04,,,,,,,,,,,0.9,0.6,0.7,5*3A
$GNVTG,64.0,T,73.0,M,21.2,N,39.3,K,A*33
$GNRMC,031152.00,A,3729.900626,N,12701.744944,E,21.2,64.0,240724,9.0,W,A,V*45
$GNGGA,031152.00,3729.900626,N,12701.744944,E,1,12,0.6,19.9,M,23.2,M,,*4E
$GPGSV,3,1,09,05,37,263,24,06,49,090,25,07,10,095,19,09,32,049,26,1*69
$GPGSV,3,2,09,11,70,357,38,12,14,254,28,13,15,189,26,19,26,161,24,1*60
$GPGSV,3,3,09,20,61,294,31,1*55
$GPGSV,1,1,03,06,49,090,23,09,32,049,23,11,70,357,24,8*59
$GAGSV,1,1,03,19,45,173,25,26,28,100,23,33,69,047,35,7*4F
$GAGSV,1,1,01,33,69,047,21,1*4B
$GQGSV,1,1,02,03,74,122,25,04,71,161,34,1*62
$GQGSV,1,1,01,04,71,161,25,8*5E
$GBGSV,5,1,18,60,26,242,24,59,45,159,31,44,46,142,27,43,26,314,22,1*7C
$GBGSV,5,2,18,42,38,225,24,40,46,195,23,38,65,311,32,34,75,300,30,1*73
$GBGSV,5,3,18,22,32,045,21,21,88,043,33,13,44,279,31,12,72,138,25,1*79
$GBGSV,5,4,18,11,49,316,28,10,49,231,27,08,51,288,28,07,45,212,24,1*71
$GBGSV,5,5,18,03,44,206,27,01,44,152,26,1*7E
$GBGSV,2,1,08,21,88,043,33,22,32,045,23,34,75,300,28,38,65,311,29,3*76
$GBGSV,2,2,08,40,46,195,23,42,38,225,27,43,26,314,24,44,46,142,24,3*7B
$GBGSV,2,1,05,21,88,043,28,22,32,045,23,34,75,300,25,38,65,311,21,5*72
$GBGSV,2,2,05,44,46,142,20,5*40
$GNGSA,A,3,05,06,09,11,12,19,20,,,,,,0.9,0.6,0.7,1*3A
$GNGSA,A,3,19,33,,,,,,,,,,,0.9,0.6,0.7,3*33
$GNGSA,A,3,07,10,11,12,13,21,22,34,38,40,42,44,0.9,0.6,0.7,4*36
$GNGSA,A,3,03,04,,,,,,,,,,,0.9,0.6,0.7,5*3A
$GNVTG,66.9,T,75.9,M,18.3,N,33.8,K,A*3D
$GNRMC,031153.00,A,3729.903021,N,12701.750699,E,18.3,66.9,240724,9.0,W,A,V*4C
$GNGGA,031153.00,3729.903021,N,12701.750699,E,1,12,0.6,21.4,M,23.2,M,,*41
$GPGSV,3,1,09,05,37,263,24,06,49,090,25,07,10,095,19,09,32,049,30,1*6E
$GPGSV,3,2,09,11,70,357,37,12,14,254,30,13,15,189,26,19,26,161,24,1*66
$GPGSV,3,3,09,20,61,294,28,1*5D
$GPGSV,1,1,03,06,49,090,20,09,32,049,23,11,70,357,26,8*58
$GAGSV,1,1,03,19,45,173,25,26,28,100,22,33,69,047,36,7*4D
$GAGSV,1,1,02,26,28,100,17,33,69,047,21,1*71
$GQGSV,1,1,02,03,74,122,26,04,71,161,34,1*61
$GQGSV,1,1,01,04,71,161,25,8*5E
$GBGSV,5,1,18,60,26,242,24,59,45,159,31,44,46,142,27,43,26,314,22,1*7C
$GBGSV,5,2,18,42,38,225,24,40,46,195,23,38,65,311,32,34,75,300,30,1*73
$GBGSV,5,3,18,22,32,045,21,21,88,043,33,13,44,279,30,12,72,138,28,1*75
$GBGSV,5,4,18,11,49,316,21,10,49,231,27,08,51,288,27,07,45,212,28,1*7B
$GBGSV,5,5,18,03,44,206,27,01,44,152,26,1*7E
$GBGSV,2,1,08,21,88,043,33,22,32,045,23,34,75,300,29,38,65,311,28,3*76
$GBGSV,2,2,08,40,46,195,23,42,38,225,27,43,26,314,24,44,46,142,20,3*7F
$GBGSV,2,1,05,21,88,043,28,22,32,045,23,34,75,300,27,38,65,311,23,5*72
$GBGSV,2,2,05,44,46,142,20,5*40
$GNGSA,A,3,05,06,09,11,12,19,20,,,,,,1.0,0.7,0.7,1*33
$GNGSA,A,3,19,26,33,,,,,,,,,,1.0,0.7,0.7,3*3E
$GNGSA,A,3,07,10,11,12,13,21,34,38,40,42,44,,1.0,0.7,0.7,4*3F
$GNGSA,A,3,03,04,,,,,,,,,,,1.0,0.7,0.7,5*33
$GNVTG,68.0,T,77.0,M,18.3,N,33.8,K,E*35
$GNRMC,031154.00,A,3729.904880,N,12701.756367,E,18.3,68.0,240724,9.0,W,E,V*4E
$GNGGA,031154.00,3729.904880,N,12701.756367,E,6,12,0.7,21.1,M,23.2,M,,*43
$GPGSV,3,1,09,05,37,263,24,06,49,090,27,07,10,095,19,09,32,049,30,1*6C
$GPGSV,3,2,09,11,70,357,36,12,14,254,31,13,15,189,26,19,26,161,19,1*68
$GPGSV,3,3,09,20,61,294,28,1*5D
$GPGSV,1,1,03,06,49,090,24,09,32,049,17,11,70,357,26,8*5B
$GAGSV,1,1,04,07,19,042,21,19,45,173,19,26,28,100,22,33,69,047,36,7*7F
$GAGSV,1,1,02,26,28,100,17,33,69,047,24,1*74
$GQGSV,1,1,02,03,74,122,25,04,71,161,23,1*64
$GQGSV,1,1,01,04,71,161,25,8*5E
$GBGSV,5,1,18,60,26,242,24,59,45,159,31,44,46,142,27,43,26,314,22,1*7C
$GBGSV,5,2,18,42,38,225,24,40,46,195,23,38,65,311,32,34,75,300,30,1*73
$GBGSV,5,3,18,22,32,045,21,21,88,043,33,13,44,279,30,12,72,138,33,1*7F
$GBGSV,5,4,18,11,49,316,26,10,49,231,27,08,51,288,30,07,45,212,30,1*73
$GBGSV,5,5,18,03,44,206,27,01,44,152,26,1*7E
$GBGSV,2,1,08,21,88,043,34,22,32,045,23,34,75,300,28,38,65,311,30,3*79
$GBGSV,2,2,08,40,46,195,23,42,38,225,27,43,26,314,24,44,46,142,29,3*76
$GBGSV,2,1,05,21,88,043,30,22,32,045,23,34,75,300,29,38,65,311,22,5*74
$GBGSV,2,2,05,44,46,142,20,5*40
$GNGSA,A,3,05,06,09,11,12,19,20,,,,,,1.0,0.7,0.7,1*33
$GNGSA,A,3,07,19,26,33,,,,,,,,,1.0,0.7,0.7,3*39
$GNGSA,A,3,07,10,11,12,13,21,34,38,40,44,,,1.0,0.7,0.7,4*39
$GNGSA,A,3,03,04,,,,,,,,,,,1.0,0.7,0.7,5*33
$GNVTG,69.5,T,78.5,M,18.7,N,34.7,K,E*37
$GNRMC,031155.00,A,3729.906801,N,12701.762076,E,18.7,69.5,240724,9.0,W,E,V*40
$GNGGA,031155.00,3729.906801,N,12701.762076,E,6,12,0.7,21.8,M,23.2,M,,*44
$GPGSV,3,1,09,05,37,263,26,06,49,090,29,07,10,095,19,09,32,049,29,1*68
$GPGSV,3,2,09,11,70,357,34,12,14,254,33,13,15,189,26,19,26,161,19,1*68
$GPGSV,3,3,09,20,61,294,29,1*5C
$GPGSV,1,1,03,06,49,090,21,09,32,049,22,11,70,357,24,8*5A
$GAGSV,1,1,04,07,19,042,24,19,45,173,19,26,28,100,20,33,69,047,35,7*7B
$GAGSV,1,1,02,26,28,100,17,33,69,047,23,1*73
$GQGSV,1,1,02,03,74,122,24,04,71,161,35,1*62
$GQGSV,1,1,01,04,71,161,21,8*5A
$GBGSV,5,1,18,60,26,242,24,59,45,159,31,44,46,142,27,43,26,314,22,1*7C
$GBGSV,5,2,18,42,38,225,24,40,46,195,23,38,65,311,32,34,75,300,30,1*73
$GBGSV,5,3,18,22,32,045,21,21,88,043,33,13,44,279,31,12,72,138,33,1*7E
$GBGSV,5,4,18,11,49,316,29,10,49,231,27,08,51,288,30,07,45,212,24,1*79
$GBGSV,5,5,18,03,44,206,27,01,44,152,26,1*7E
$GBGSV,2,1,08,21,88,043,34,22,32,045,23,34,75,300,31,38,65,311,28,3*78
$GBGSV,2,2,08,40,46,195,27,42,38,225,18,43,26,314,24,44,46,142,30,3*76
$GBGSV,2,1,06,21,88,043,29,22,32,045,23,34,75,300,26,38,65,311,24,5*76
$GBGSV,2,2,06,40,46,195,16,44,46,142,17,5*7B
$GNGSA,A,3,05,06,09,11,12,19,20,,,,,,0.9,0.6,0.7,1*3A
$GNGSA,A,3,07,19,26,33,,,,,,,,,0.9,0.6,0.7,3*30
$GNGSA,A,3,07,10,11,12,13,21,34,38,40,42,44,,0.9,0.6,0.7,4*36
$GNGSA,A,3,03,04,,,,,,,,,,,0.9,0.6,0.7,5*3A
$GNVTG,69.9,T,78.9,M,19.0,N,35.3,K,E*34
$GNRMC,031156.00,A,3729.908378,N,12701.768177,E,19.0,69.9,240724,9.0,W,E,V*48
$GNGGA,031156.00,3729.908378,N,12701.768177,E,6,12,0.6,23.3,M,23.2,M,,*4E
$GPGSV,3,1,09,05,37,263,27,06,49,090,27,07,10,095,19,09,32,049,24,1*6A
$GPGSV,3,2,09,11,70,357,35,12,14,254,33,13,15,189,26,19,26,161,34,1*66
$GPGSV,3,3,09,20,61,294,28,1*5D
$GPGSV,1,1,03,06,49,090,23,09,32,049,22,11,70,357,26,8*5A
$GAGSV,1,1,04,07,19,042,23,19,45,173,19,26,28,100,20,33,69,047,36,7*7F
$GAGSV,1,1,02,26,28,100,17,33,69,047,21,1*71
$GQGSV,1,1,02,03,74,122,26,04,71,161,35,1*60
$GQGSV,1,1,01,04,71,161,24,8*5F
$GBGSV,5,1,18,60,26,242,24,59,45,159,31,44,46,142,27,43,26,314,22,1*7C
$GBGSV,5,2,18,42,38,225,24,40,46,195,23,38,65,311,32,34,75,300,30,1*73
$GBGSV,5,3,18,22,32,045,21,21,88,043,33,13,44,279,31,12,72,138,32,1*7F
$GBGSV,5,4,18,11,49,316,26,10,49,231,20,08,51,288,29,07,45,212,24,1*79
$GBGSV,5,5,18,03,44,206,27,01,44,152,26,1*7E
$GBGSV,2,1,08,21,88,043,33,22,32,045,23,34,75,300,29,38,65,311,26,3*78
$GBGSV,2,2,08,40,46,195,28,42,38,225,18,43,26,314,17,44,46,142,33,3*7A
$GBGSV,2,1,06,21,88,043,29,22,32,045,23,34,75,300,28,38,65,311,24,5*78
$GBGSV,2,2,06,40,46,195,16,44,46,142,22,5*7D
$GNGSA,A,3,05,06,09,11,12,19,20,,,,,,0.9,0.6,0.7,1*3A
$GNGSA,A,3,07,19,26,33,,,,,,,,,0.9,0.6,0.7,3*30
$GNGSA,A,3,07,10,11,12,13,21,34,38,40,42,44,,0.9,0.6,0.7,4*36
$GNGSA,A,3,03,04,,,,,,,,,,,0.9,0.6,0.7,5*3A
$GNVTG,69.6,T,78.6,M,19.0,N,35.3,K,E*34
$GNRMC,031157.00,A,3729.910014,N,12701.774337,E,19.0,69.6,240724,9.0,W,E,V*4D
$GNGGA,031157.00,3729.910014,N,12701.774337,E,6,12,0.6,24.5,M,23.2,M,,*45
$GPGSV,3,1,09,05,37,263,25,06,49,090,31,07,10,095,19,09,32,049,23,1*68
$GPGSV,3,2,09,11,70,357,35,12,14,254,33,13,15,189,26,19,26,161,34,1*66
$GPGSV,3,3,09,20,61,294,27,1*52
$GPGSV,1,1,03,06,49,090,30,09,32,049,22,11,70,357,26,8*58
$GAGSV,1,1,04,07,19,042,23,19,45,173,22,26,28,100,20,33,69,047,36,7*77
$GAGSV,1,1,02,26,28,100,17,33,69,047,22,1*72
$GQGSV,1,1,02,03,74,122,28,04,71,161,34,1*6F
$GQGSV,1,1,01,04,71,161,24,8*5F
$GBGSV,5,1,18,60,26,242,24,59,45,159,31,44,46,142,27,43,26,314,22,1*7C
$GBGSV,5,2,18,42,38,225,24,40,46,195,23,38,65,311,32,34,75,300,30,1*73
$GBGSV,5,3,18,22,32,045,21,21,88,043,33,13,44,279,33,12,72,138,33,1*7C
$GBGSV,5,4,18,11,49,316,24,10,49,231,24,08,51,288,29,07,45,212,24,1*7F
$GBGSV,5,5,18,03,44,206,27,01,44,152,26,1*7E
$GBGSV,2,1,08,21,88,043,32,22,32,045,23,34,75,300,28,38,65,311,28,3*76
$GBGSV,2,2,08,40,46,195,28,42,38,225,18,43,26,314,17,44,46,142,30,3*79
$GBGSV,2,1,06,21,88,043,29,22,32,045,23,34,75,300,28,38,65,311,20,5*7C
$GBGSV,2,2,06,40,46,195,16,44,46,142,24,5*7B
$GNGSA,A,3,05,06,09,11,12,19,20,,,,,,0.9,0.6,0.7,1*3A
$GNGSA,A,3,07,19,26,33,,,,,,,,,0.9,0.6,0.7,3*30
$GNGSA,A,3,07,10,11,12,13,21,34,38,40,42,44,,0.9,0.6,0.7,4*36
$GNGSA,A,3,03,04,,,,,,,,,,,0.9,0.6,0.7,5*3A
$GNVTG,69.1,T,78.1,M,19.3,N,35.8,K,E*3C
$GNRMC,031158.00,A,3729.912222,N,12701.780386,E,19.3,69.1,240724,9.0,W,E,V*42
$GNGGA,031158.00,3729.912222,N,12701.780386,E,6,12,0.6,25.1,M,23.2,M,,*4B
$GPGSV,3,1,09,05,37,263,25,06,49,090,32,07,10,095,19,09,32,049,27,1*6F
$GPGSV,3,2,09,11,70,357,35,12,14,254,34,13,15,189,26,19,26,161,26,1*62
$GPGSV,3,3,09,20,61,294,26,1*53
$GPGSV,1,1,03,06,49,090,32,09,32,049,20,11,70,357,26,8*58
$GAGSV,1,1,04,07,19,042,23,19,45,173,27,26,28,100,20,33,69,047,35,7*71
$GAGSV,1,1,03,19,45,173,14,26,28,100,17,33,69,047,22,1*4A
$GQGSV,1,1,02,03,74,122,26,04,71,161,34,1*61
$GQGSV,1,1,01,04,71,161,26,8*5D
$GBGSV,5,1,18,60,26,242,24,59,45,159,31,44,46,142,27,43,26,314,22,1*7C
$GBGSV,5,2,18,42,38,225,24,40,46,195,23,38,65,311,32,34,75,300,30,1*73
$GBGSV,5,3,18,22,32,045,21,21,88,043,33,13,44,279,30,12,72,138,29,1*74
$GBGSV,5,4,18,11,49,316,26,10,49,231,26,08,51,288,26,07,45,212,24,1*70
$GBGSV,5,5,18,03,44,206,27,01,44,152,26,1*7E
$GBGSV,2,1,08,21,88,043,33,22,32,045,23,34,75,300,28,38,65,311,28,3*77
$GBGSV,2,2,08,40,46,195,28,42,38,225,18,43,26,314,17,44,46,142,25,3*7D
$GBGSV,2,1,06,21,88,043,29,22,32,045,14,34,75,300,27,38,65,311,24,5*73
$GBGSV,2,2,06,40,46,195,16,44,46,142,24,5*7B
$GNGSA,A,3,05,06,09,11,12,19,20,,,,,,0.9,0.6,0.7,1*3A
$GNGSA,A,3,07,19,26,33,,,,,,,,,0.9,0.6,0.7,3*30
$GNGSA,A,3,07,10,11,12,13,21,34,38,40,42,44,,0.9,0.6,0.7,4*36
$GNGSA,A,3,03,04,,,,,,,,,,,0.9,0.6,0.7,5*3A
$GNVTG,69.0,T,78.0,M,17.9,N,33.2,K,E*34
$GNRMC,031159.00,A,3729.914056,N,12701.786057,E,17.9,69.0,240724,9.0,W,E,V*48
$GNGGA,031159.00,3729.914056,N,12701.786057,E,6,12,0.6,24.7,M,23.2,M,,*43
$GPGSV,3,1,09,05,37,263,24,06,49,090,31,07,10,095,19,09,32,049,29,1*63
$GPGSV,3,2,09,11,70,357,35,12,14,254,33,13,15,189,26,19,26,161,26,1*65
$GPGSV,3,3,09,20,61,294,29,1*5C
$GPGSV,1,1,03,06,49,090,28,09,32,049,29,11,70,357,25,8*59
$GAGSV,1,1,04,07,19,042,23,19,45,173,22,26,28,100,17,33,69,047,37,7*72
$GAGSV,1,1,03,19,45,173,14,26,28,100,17,33,69,047,19,1*42
$GQGSV,1,1,02,03,74,122,24,04,71,161,25,1*63
$GQGSV,1,1,01,04,71,161,26,8*5D
$GBGSV,5,1,18,60,26,242,24,59,45,159,31,44,46,142,27,43,26,314,22,1*7C
$GBGSV,5,2,18,42,38,225,24,40,46,195,23,38,65,311,32,34,75,300,30,1*73
$GBGSV,5,3,18,22,32,045,21,21,88,043,33,13,44,279,32,12,72,138,27,1*78
$GBGSV,5,4,18,11,49,316,27,10,49,231,26,08,51,288,32,07,45,212,24,1*74
$GBGSV,5,5,18,03,44,206,27,01,44,152,26,1*7E
$GBGSV,2,1,08,21,88,043,32,22,32,045,23,34,75,300,27,38,65,311,28,3*79
$GBGSV,2,2,08,40,46,195,22,42,38,225,18,43,26,314,17,44,46,142,26,3*74
$GBGSV,2,1,06,21,88,043,29,22,32,045,14,34,75,300,27,38,65,311,23,5*74
$GBGSV,2,2,06,40,46,195,16,44,46,142,24,5*7B
$GNGSA,A,3,05,06,09,11,12,19,20,,,,,,0.9,0.6,0.7,1*3A
$GNGSA,A,3,07,19,26,33,,,,,,,,,0.9,0.6,0.7,3*30
$GNGSA,A,3,07,10,11,12,13,21,34,38,40,42,44,,0.9,0.6,0.7,4*36
$GNGSA,A,3,03,04,,,,,,,,,,,0.9,0.6,0.7,5*3A
$GNVTG,68.5,T,77.5,M,17.8,N,32.9,K,E*31
$GNRMC,031200.00,A,3729.916227,N,12701.791844,E,17.8,68.5,240724,9.0,W,E,V*48
$GNGGA,031200.00,3729.916227,N,12701.791844,E,6,12,0.6,25.1,M,23.2,M,,*41
$GPGSV,3,1,09,05,37,263,25,06,49,090,32,07,10,095,19,09,32,050,26,1*66
$GPGSV,3,2,09,11,70,357,36,12,14,254,31,13,15,189,26,19,26,161,26,1*64
$GPGSV,3,3,09,20,61,294,29,1*5C
$GPGSV,1,1,03,06,49,090,28,09,32,050,28,11,70,357,26,8*53
$GAGSV,1,1,04,07,19,042,23,19,45,173,23,26,28,100,26,33,69,047,37,7*71
$GAGSV,1,1,03,19,45,173,14,26,28,100,17,33,69,047,22,1*4A
$GQGSV,1,1,02,03,74,122,26,04,71,161,25,1*61
$GQGSV,1,1,01,04,71,161,26,8*5D
$GBGSV,5,1,18,60,26,242,24,59,45,159,31,44,46,142,27,43,26,314,22,1*7C
$GBGSV,5,2,18,42,38,225,24,40,46,195,23,38,65,311,32,34,75,300,30,1*73
$GBGSV,5,3,18,22,32,045,21,21,88,043,33,13,44,279,32,12,72,138,25,1*7A
$GBGSV,5,4,18,11,49,316,24,10,49,231,24,08,51,288,29,07,45,212,24,1*7F
$GBGSV,5,5,18,03,44,206,27,01,44,152,26,1*7E
$GBGSV,2,1,08,21,88,043,31,22,32,045,23,34,75,300,26,38,65,311,26,3*75
$GBGSV,2,2,08,40,46,195,29,42,38,225,18,43,26,314,17,44,46,142,26,3*7F
$GBGSV,2,1,06,21,88,043,28,22,32,045,14,34,75,300,28,38,65,311,21,5*78
$GBGSV,2,2,06,40,46,195,16,44,46,142,24,5*7B
$GNGSA,A,3,05,06,09,11,12,19,20,,,,,,0.9,0.6,0.7,1*3A
$GNGSA,A,3,07,19,26,33,,,,,,,,,0.9,0.6,0.7,3*30
$GNGSA,A,3,07,10,11,12,13,21,34,38,40,42,44,,0.9,0.6,0.7,4*36
$GNGSA,A,3,03,04,,,,,,,,,,,0.9,0.6,0.7,5*3A
$GNVTG,68.2,T,77.2,M,19.3,N,35.8,K,E*32
$GNRMC,031201.00,A,3729.918318,N,12701.798221,E,19.3,68.2,240724,9.0,W,E,V*48
$GNGGA,031201.00,3729.918318,N,12701.798221,E,6,12,0.6,25.6,M,23.2,M,,*44
$GPGSV,3,1,09,05,37,263,25,06,49,090,32,07,10,095,19,09,32,050,28,1*68
$GPGSV,3,2,09,11,70,357,35,12,14,254,32,13,15,189,26,19,26,161,26,1*64
$GPGSV,3,3,09,20,61,294,28,1*5D
$GPGSV,1,1,03,06,49,090,30,09,32,050,28,11,70,357,25,8*59
$GAGSV,1,1,04,07,19,042,23,19,45,173,23,26,28,100,27,33,69,047,35,7*72
$GAGSV,1,1,03,19,45,173,14,26,28,100,17,33,69,047,22,1*4A
$GQGSV,1,1,02,03,74,122,27,04,71,161,23,1*66
$GQGSV,1,1,01,04,71,161,26,8*5D
$GBGSV,5,1,18,60,26,242,24,59,45,159,31,44,46,142,27,43,26,314,22,1*7C
$GBGSV,5,2,18,42,38,225,24,40,46,195,23,38,65,311,32,34,75,300,30,1*73
$GBGSV,5,3,18,22,32,045,21,21,88,043,33,13,44,279,33,12,72,138,27,1*79
$GBGSV,5,4,18,11,49,316,24,10,49,231,25,08,51,288,27,07,45,212,24,1*70
$GBGSV,5,5,18,03,44,206,27,01,44,152,26,1*7E
$GBGSV,2,1,08,21,88,043,33,22,32,045,23,34,75,300,27,38,65,311,24,3*74
$GBGSV,2,2,08,40,46,195,29,42,38,225,18,43,26,314,17,44,46,142,23,3*7A
$GBGSV,2,1,06,21,88,043,30,22,32,045,23,34,75,300,28,38,65,311,23,5*77
$GBGSV,2,2,06,40,46,195,16,44,46,142,19,5*75
$GNGSA,A,3,05,06,09,11,12,19,20,,,,,,0.9,0.6,0.7,1*3A
$GNGSA,A,3,07,19,26,33,,,,,,,,,0.9,0.6,0.7,3*30
$GNGSA,A,3,10,11,12,13,21,22,34,38,40,44,,,0.9,0.6,0.7,4*37
$GNGSA,A,3,03,04,,,,,,,,,,,0.9,0.6,0.7,5*3A
$GNVTG,68.8,T,77.8,M,20.0,N,37.0,K,E*31
$GNRMC,031202.00,A,3729.920258,N,12701.804618,E,20.0,68.8,240724,9.0,W,E,V*42
$GNGGA,031202.00,3729.920258,N,12701.804618,E,6,12,0.6,25.9,M,23.2,M,,*42
$GPGSV,3,1,09,05,37,263,25,06,49,090,33,07,10,095,19,09,32,050,27,1*66
$GPGSV,3,2,09,11,70,357,35,12,14,254,32,13,15,189,26,19,26,161,26,1*64
$GPGSV,3,3,09,20,61,294,27,1*52
$GPGSV,1,1,03,06,49,090,30,09,32,050,27,11,70,357,27,8*54
$GAGSV,1,1,04,07,19,042,23,19,45,173,20,26,28,100,27,33,69,047,36,7*72
$GAGSV,1,1,03,19,45,173,14,26,28,100,15,33,69,047,21,1*4B
$GQGSV,1,1,02,03,74,122,25,04,71,161,27,1*60
$GQGSV,1,1,01,04,71,161,26,8*5D
$GBGSV,5,1,18,60,26,242,24,59,45,159,31,44,46,142,27,43,26,314,22,1*7C
$GBGSV,5,2,18,42,38,225,24,40,46,195,23,38,65,311,32,34,75,300,30,1*73
$GBGSV,5,3,18,22,32,045,21,21,88,043,33,13,44,279,31,12,72,138,31,1*7C
$GBGSV,5,4,18,11,49,316,24,10,49,231,25,08,51,288,25,07,45,212,18,1*7D
$GBGSV,5,5,18,03,44,206,27,01,44,152,26,1*7E
$GBGSV,2,1,08,21,88,043,33,22,32,045,23,34,75,300,29,38,65,311,24,3*7A
$GBGSV,2,2,08,40,46,195,21,42,38,225,18,43,26,314,18,44,46,142,25,3*7B
$GBGSV,2,1,06,21,88,043,30,22,32,045,26,34,75,300,28,38,65,311,22,5*73
$GBGSV,2,2,06,40,46,195,16,44,46,142,19,5*75
$GNGSA,A,3,05,06,09,11,12,19,20,,,,,,0.9,0.6,0.7,1*3A
$GNGSA,A,3,07,19,26,33,,,,,,,,,0.9,0.6,0.7,3*30
$GNGSA,A,3,07,10,11,12,13,21,22,34,38,40,44,,0.9,0.6,0.7,4*30
$GNGSA,A,3,03,04,,,,,,,,,,,0.9,0.6,0.7,5*3A
$GNVTG,68.8,T,77.8,M,18.3,N,33.9,K,E*34
$GNRMC,031203.00,A,3729.922155,N,12701.810426,E,18.3,68.8,240724,9.0,W,E,V*4D
$GNGGA,031203.00,3729.922155,N,12701.810426,E,6,12,0.6,26.7,M,23.2,M,,*48
$GPGSV,3,1,09,05,37,263,22,06,49,090,31,07,10,095,19,09,32,050,29,1*6D
$GPGSV,3,2,09,11,70,357,36,12,14,254,32,13,15,189,26,19,26,161,26,1*67
$GPGSV,3,3,09,20,61,294,25,1*50
$GPGSV,1,1,03,06,49,090,29,09,32,050,27,11,70,357,27,8*5C
$GAGSV,1,1,04,07,19,042,23,19,45,173,29,26,28,100,27,33,69,047,36,7*7B
$GAGSV,1,1,03,19,45,173,14,26,28,100,15,33,69,047,23,1*49
$GQGSV,1,1,02,03,74,122,27,04,71,161,29,1*6C
$GQGSV,1,1,02,03,74,122,18,04,71,161,17,8*64
$GBGSV,5,1,18,60,26,242,24,59,45,159,31,44,46,142,27,43,26,314,22,1*7C
$GBGSV,5,2,18,42,38,225,24,40,46,195,23,38,65,311,32,34,75,300,30,1*73
$GBGSV,5,3,18,22,32,045,21,21,88,043,33,13,44,279,32,12,72,138,32,1*7C
$GBGSV,5,4,18,11,49,316,24,10,49,231,23,08,51,288,25,07,45,212,18,1*7B
$GBGSV,5,5,18,03,44,206,27,01,44,152,26,1*7E
$GBGSV,2,1,08,21,88,043,33,22,32,045,23,34,75,300,29,38,65,311,24,3*7A
$GBGSV,2,2,08,40,46,195,21,42,38,225,18,43,26,314,18,44,46,142,22,3*7C
$GBGSV,2,1,06,21,88,043,29,22,32,045,27,34,75,300,27,38,65,311,22,5*75
$GBGSV,2,2,06,40,46,195,16,44,46,142,21,5*7E
$GNGSA,A,3,05,06,09,11,12,19,20,,,,,,0.9,0.6,0.7,1*3A
$GNGSA,A,3,19,26,33,,,,,,,,,,0.9,0.6,0.7,3*37
$GNGSA,A,3,07,10,11,12,13,21,22,34,38,40,44,,0.9,0.6,0.7,4*30
$GNGSA,A,3,03,04,,,,,,,,,,,0.9,0.6,0.7,5*3A
$GNVTG,68.9,T,77.9,M,16.4,N,30.3,K,E*34
$GNRMC,031204.00,A,3729.923865,N,12701.815607,E,16.4,68.9,240724,9.0,W,E,V*4D
$GNGGA,031204.00,3729.923865,N,12701.815607,E,6,12,0.6,27.2,M,23.2,M,,*44
$GPGSV,3,1,09,05,37,263,26,06,49,090,32,07,10,095,19,09,32,050,29,1*6A
$GPGSV,3,2,09,11,70,357,35,12,14,254,30,13,15,189,26,19,26,161,19,1*6A
$GPGSV,3,3,09,20,61,294,28,1*5D
$GPGSV,1,1,03,06,49,090,29,09,32,050,26,11,70,357,25,8*5F
$GAGSV,1,1,04,07,19,042,23,19,45,173,29,26,28,100,27,33,69,047,36,7*7B
$GAGSV,1,1,03,19,45,173,14,26,28,100,15,33,69,047,23,1*49
$GQGSV,1,1,02,03,74,122,28,04,71,161,32,1*69
$GQGSV,1,1,02,03,74,122,18,04,71,161,24,8*64
$GBGSV,5,1,18,60,26,242,24,59,45,159,31,44,46,142,27,43,26,314,22,1*7C
$GBGSV,5,2,18,42,38,225,24,40,46,195,23,38,65,311,32,34,75,300,30,1*73
$GBGSV,5,3,18,22,32,045,21,21,88,043,33,13,44,279,29,12,72,138,32,1*76
$GBGSV,5,4,18,11,49,316,22,10,49,231,25,08,51,288,25,07,45,212,23,1*73
$GBGSV,5,5,18,03,44,206,27,01,44,152,26,1*7E
$GBGSV,2,1,08,21,88,043,32,22,32,045,23,34,75,300,29,38,65,311,25,3*7A
$GBGSV,2,2,08,40,46,195,20,42,38,225,18,43,26,314,18,44,46,142,26,3*79
$GBGSV,2,1,06,21,88,043,29,22,32,045,23,34,75,300,29,38,65,311,21,5*7C
$GBGSV,2,2,06,40,46,195,16,44,46,142,20,5*7F
$GNGSA,A,3,05,06,09,11,12,19,20,,,,,,0.9,0.6,0.7,1*3A
$GNGSA,A,3,19,26,33,,,,,,,,,,0.9,0.6,0.7,3*37
$GNGSA,A,3,07,10,11,12,13,21,22,34,38,40,44,,0.9,0.6,0.7,4*30
$GNGSA,A,3,03,04,,,,,,,,,,,0.9,0.6,0.7,5*3A
$GNVTG,68.4,T,77.4,M,16.0,N,29.7,K,E*3C
$GNRMC,031205.00,A,3729.925733,N,12701.820798,E,16.0,68.4,240724,9.0,W,E,V*4E
$GNGGA,031205.00,3729.925733,N,12701.820798,E,6,12,0.6,27.6,M,23.2,M,,*4A
$GPGSV,3,1,09,05,37,263,26,06,49,090,32,07,10,095,19,09,32,050,27,1*64
$GPGSV,3,2,09,11,70,357,33,12,14,254,32,13,15,189,26,19,26,161,19,1*6E
$GPGSV,3,3,09,20,61,294,30,1*54
$GPGSV,1,1,03,06,49,090,31,09,32,050,26,11,70,357,27,8*54
$GAGSV,1,1,04,07,19,042,23,19,45,173,29,26,28,100,27,33,69,047,36,7*7B
$GAGSV,1,1,03,19,45,173,14,26,28,100,15,33,69,047,23,1*49
$GQGSV,1,1,02,03,74,122,30,04,71,161,29,1*6A
$GQGSV,1,1,02,03,74,122,18,04,71,161,21,8*61
$GBGSV,5,1,18,60,26,242,24,59,45,159,31,44,46,142,27,43,26,314,22,1*7C
$GBGSV,5,2,18,42,38,225,24,40,46,195,23,38,65,311,32,34,75,300,30,1*73
$GBGSV,5,3,18,22,32,045,21,21,88,043,33,13,44,279,29,12,72,138,33,1*77
$GBGSV,5,4,18,11,49,316,22,10,49,231,27,08,51,288,20,07,45,212,23,1*74
$GBGSV,5,5,18,03,44,206,27,01,44,152,26,1*7E
$GBGSV,2,1,08,21,88,043,34,22,32,045,23,34,75,300,27,38,65,311,28,3*7F
$GBGSV,2,2,08,40,46,195,20,42,38,225,18,43,26,314,18,44,46,142,25,3*7A
$GBGSV,2,1,06,21,88,043,28,22,32,045,23,34,75,300,28,38,65,311,23,5*7E
$GBGSV,2,2,06,40,46,195,16,44,46,142,20,5*7F
$GNGSA,A,3,05,06,09,11,12,19,20,,,,,,0.9,0.6,0.7,1*3A
$GNGSA,A,3,19,26,33,,,,,,,,,,0.9,0.6,0.7,3*37
$GNGSA,A,3,07,10,11,12,13,21,22,34,38,40,44,,0.9,0.6,0.7,4*30
$GNGSA,A,3,03,04,,,,,,,,,,,0.9,0.6,0.7,5*3A
$GNVTG,68.2,T,77.2,M,17.5,N,32.3,K,E*36
$GNRMC,031206.00,A,3729.927641,N,12701.826516,E,17.5,68.2,240724,9.0,W,E,V*4B
$GNGGA,031206.00,3729.927641,N,12701.826516,E,6,12,0.6,27.5,M,23.2,M,,*4E
$GPGSV,3,1,09,05,37,263,26,06,49,090,33,07,10,095,19,09,32,050,24,1*66
$GPGSV,3,2,09,11,70,357,32,12,14,254,32,13,15,189,26,19,26,161,19,1*6F
$GPGSV,3,3,09,20,61,294,27,1*52
$GPGSV,1,1,03,06,49,090,32,09,32,050,24,11,70,357,27,8*55
$GAGSV,1,1,04,07,19,042,23,19,45,173,20,26,28,100,27,33,69,047,34,7*70
$GAGSV,1,1,03,19,45,173,14,26,28,100,15,33,69,047,19,1*40
$GQGSV,1,1,02,03,74,122,30,04,71,161,31,1*63
$GQGSV,1,1,02,03,74,122,18,04,71,161,22,8*62
$GBGSV,5,1,18,60,26,242,24,59,45,159,31,44,46,142,27,43,26,314,22,1*7C
$GBGSV,5,2,18,42,38,225,24,40,46,195,23,38,65,311,32,34,75,300,30,1*73
$GBGSV,5,3,18,22,32,045,21,21,88,043,33,13,44,279,29,12,72,138,34,1*70
$GBGSV,5,4,18,11,49,316,23,10,49,231,25,08,51,288,23,07,45,212,23,1*74
$GBGSV,5,5,18,03,44,206,27,01,44,152,26,1*7E
$GBGSV,2,1,08,21,88,043,33,22,32,045,23,34,75,300,29,38,65,311,23,3*7D
$GBGSV,2,2,08,40,46,195,20,42,38,225,18,43,26,314,18,44,46,142,22,3*7D
$GBGSV,2,1,06,21,88,043,28,22,32,045,23,34,75,300,28,38,65,311,23,5*7E
$GBGSV,2,2,06,40,46,195,16,44,46,142,19,5*75
$GNGSA,A,3,05,06,09,11,12,19,20,,,,,,0.9,0.6,0.7,1*3A
$GNGSA,A,3,19,26,33,,,,,,,,,,0.9,0.6,0.7,3*37
$GNGSA,A,3,07,10,11,12,13,21,22,34,38,40,44,,0.9,0.6,0.7,4*30
$GNGSA,A,3,03,04,,,,,,,,,,,0.9,0.6,0.7,5*3A
$GNVTG,68.2,T,77.2,M,17.2,N,31.9,K,E*38
$GNRMC,031207.00,A,3729.929406,N,12701.832242,E,17.2,68.2,240724,9.0,W,E,V*41
$GNGGA,031207.00,3729.929406,N,12701.832242,E,6,12,0.6,27.8,M,23.2,M,,*4E
$GPGSV,2,1,08,05,37,263,24,06,49,090,32,07,10,095,19,09,32,050,24,1*65
$GPGSV,2,2,08,11,70,357,32,12,14,254,30,19,26,161,19,20,61,294,28,1*6F
$GPGSV,1,1,03,06,49,090,29,09,32,050,24,11,70,357,25,8*5D
$GAGSV,1,1,04,07,19,042,23,19,45,173,20,26,28,100,27,33,69,047,36,7*72
$GAGSV,1,1,03,19,45,173,14,26,28,100,15,33,69,047,19,1*40
$GQGSV,1,1,02,03,74,122,29,04,71,161,33,1*69
$GQGSV,1,1,02,03,74,122,17,04,71,161,24,8*6B
$GBGSV,5,1,18,60,26,242,24,59,45,159,31,44,46,142,27,43,26,314,22,1*7C
$GBGSV,5,2,18,42,38,225,24,40,46,195,23,38,65,311,32,34,75,300,30,1*73
$GBGSV,5,3,18,22,32,045,21,21,88,043,33,13,44,279,22,12,72,138,34,1*7B
$GBGSV,5,4,18,11,49,316,23,10,49,231,26,08,51,288,25,07,45,212,22,1*70
$GBGSV,5,5,18,03,44,206,27,01,44,152,26,1*7E
$GBGSV,2,1,08,21,88,043,33,22,32,045,23,34,75,300,28,38,65,311,23,3*7C
$GBGSV,2,2,08,40,46,195,20,42,38,225,18,43,26,314,18,44,46,142,24,3*7B
$GBGSV,2,1,07,21,88,043,27,22,32,045,21,34,75,300,28,38,65,311,23,5*72
$GBGSV,2,2,07,40,46,195,16,42,38,225,17,44,46,142,19,5*4A
$GNGSA,A,3,05,06,09,11,12,19,20,,,,,,0.9,0.6,0.7,1*3A
$GNGSA,A,3,19,33,,,,,,,,,,,0.9,0.6,0.7,3*33
$GNGSA,A,3,07,10,11,12,13,21,22,34,38,40,44,,0.9,0.6,0.7,4*30
$GNGSA,A,3,03,04,,,,,,,,,,,0.9,0.6,0.7,5*3A
$GNVTG,68.0,T,77.0,M,16.5,N,30.6,K,E*30
$GNRMC,031208.00,A,3729.931168,N,12701.837517,E,16.5,68.0,240724,9.0,W,E,V*4C
$GNGGA,031208.00,3729.931168,N,12701.837517,E,6,12,0.6,28.2,M,23.2,M,,*42
$GPGSV,2,1,08,05,37,263,29,06,49,090,27,07,10,095,19,09,32,050,24,1*6C
$GPGSV,2,2,08,11,70,357,32,12,14,254,31,19,26,161,20,20,61,294,23,1*6F
$GPGSV,1,1,03,06,49,090,21,09,32,050,24,11,70,357,27,8*57
$GAGSV,1,1,04,07,19,042,23,19,45,173,21,26,28,100,27,33,69,047,37,7*72
$GAGSV,1,1,03,19,45,173,14,26,28,100,16,33,69,047,18,1*42
$GQGSV,1,1,02,03,74,122,30,04,71,161,33,1*61
$GQGSV,1,1,02,03,74,122,20,04,71,161,23,8*68
$GBGSV,5,1,18,60,26,242,24,59,45,159,31,44,46,142,27,43,26,314,22,1*7C
$GBGSV,5,2,18,42,38,225,24,40,46,195,23,38,65,311,32,34,75,300,30,1*73
$GBGSV,5,3,18,22,32,045,21,21,88,043,33,13,44,279,29,12,72,138,34,1*70
$GBGSV,5,4,18,11,49,316,23,10,49,231,28,08,51,288,27,07,45,212,29,1*77
$GBGSV,5,5,18,03,44,206,27,01,44,152,26,1*7E
$GBGSV,2,1,08,21,88,043,34,22,32,045,23,34,75,300,29,38,65,311,24,3*7D
$GBGSV,2,2,08,40,46,195,18,42,38,225,18,43,26,314,18,44,46,142,23,3*77
$GBGSV,2,1,07,21,88,043,28,22,32,045,25,34,75,300,27,38,65,311,19,5*7F
$GBGSV,2,2,07,40,46,195,16,42,38,225,17,44,46,142,19,5*4A
$GNGSA,A,3,05,06,09,11,12,19,20,,,,,,0.9,0.6,0.7,1*3A
$GNGSA,A,3,19,33,,,,,,,,,,,0.9,0.6,0.7,3*33
$GNGSA,A,3,07,10,11,12,13,21,22,34,38,40,44,,0.9,0.6,0.7,4*30
$GNGSA,A,3,03,04,,,,,,,,,,,0.9,0.6,0.7,5*3A
$GNVTG,67.9,T,76.9,M,17.2,N,31.9,K,E*36
$GNRMC,031209.00,A,3729.933153,N,12701.842917,E,17.2,67.9,240724,9.0,W,E,V*49
$GNGGA,031209.00,3729.933153,N,12701.842917,E,6,12,0.6,28.6,M,23.2,M,,*43
$GPGSV,3,1,10,05,37,263,29,06,49,090,27,07,10,095,19,09,32,050,24,1*64
$GPGSV,3,2,10,11,70,357,33,12,14,254,31,13,15,189,24,19,26,161,20,1*6D
$GPGSV,3,3,10,20,61,294,27,29,13,321,21,1*60
$GPGSV,1,1,03,06,49,090,24,09,32,050,24,11,70,357,25,8*50
$GAGSV,1,1,04,07,19,042,23,19,45,173,24,26,28,100,17,33,69,047,35,7*76
$GAGSV,1,1,03,19,45,173,14,26,28,100,16,33,69,047,18,1*42
$GQGSV,1,1,02,03,74,122,31,04,71,161,30,1*63
$GQGSV,1,1,02,03,74,122,20,04,71,161,23,8*68
$GBGSV,4,1,16,60,26,242,24,59,45,159,31,44,46,142,27,43,26,314,22,1*73
$GBGSV,4,2,16,42,38,225,24,40,46,195,23,38,65,311,32,34,75,300,30,1*7C
$GBGSV,4,3,16,22,32,045,21,21,88,043,33,13,44,279,32,12,72,138,35,1*74
$GBGSV,4,4,16,11,49,316,23,10,49,231,28,08,51,288,27,07,45,212,29,1*78
$GBGSV,2,1,08,21,88,043,35,22,32,045,23,34,75,300,29,38,65,311,24,3*7C
$GBGSV,2,2,08,40,46,195,18,42,38,225,18,43,26,314,21,44,46,142,23,3*7D
$GBGSV,2,1,07,21,88,043,29,22,32,045,21,34,75,300,27,38,65,311,20,5*70
$GBGSV,2,2,07,40,46,195,16,42,38,225,17,44,46,142,19,5*4A
$GNGSA,A,3,05,06,09,11,12,13,19,20,29,,,,0.8,0.6,0.6,1*33
$GNGSA,A,3,19,26,33,,,,,,,,,,0.8,0.6,0.6,3*37
$GNGSA,A,3,07,10,11,12,13,21,22,34,38,40,44,,0.8,0.6,0.6,4*30
$GNGSA,A,3,03,04,,,,,,,,,,,0.8,0.6,0.6,5*3A
$GNVTG,68.4,T,77.4,M,17.9,N,33.1,K,E*39
$GNRMC,031210.00,A,3729.934968,N,12701.848933,E,17.9,68.4,240724,9.0,W,E,V*43
$GNGGA,031210.00,3729.934968,N,12701.848933,E,6,12,0.6,29.1,M,23.2,M,,*46
$GPGSV,3,1,09,05,37,263,24,06,49,090,27,09,32,050,20,11,70,357,32,1*60
$GPGSV,3,2,09,12,14,254,30,13,15,189,30,19,26,161,22,20,61,294,29,1*64
$GPGSV,3,3,09,29,13,321,21,1*57
$GPGSV,1,1,03,06,49,090,24,09,32,050,24,11,70,357,27,8*52
$GAGSV,2,1,05,07,19,042,23,19,45,173,24,24,14,285,18,26,28,100,17,7*7B
$GAGSV,2,2,05,33,69,047,35,7*4C
$GAGSV,1,1,03,19,45,173,14,26,28,100,16,33,69,047,18,1*42
$GQGSV,1,1,02,03,74,122,29,04,71,161,31,1*6B
$GQGSV,1,1,02,03,74,122,20,04,71,161,20,8*6B
$GBGSV,4,1,14,59,45,159,31,44,46,142,27,42,38,225,24,40,46,195,23,1*70
$GBGSV,4,2,14,38,65,311,32,34,75,300,30,22,32,045,21,21,88,043,33,1*7D
$GBGSV,4,3,14,13,44,279,29,12,72,138,33,11,49,316,23,10,49,231,26,1*7D
$GBGSV,4,4,14,08,51,288,27,07,45,212,26,1*7B
$GBGSV,2,1,08,21,88,043,33,22,32,045,23,34,75,300,29,38,65,311,27,3*79
$GBGSV,2,2,08,40,46,195,18,42,38,225,18,43,26,314,24,44,46,142,25,3*7E
$GBGSV,2,1,07,21,88,043,28,22,32,045,21,34,75,300,27,38,65,311,23,5*72
$GBGSV,2,2,07,40,46,195,16,42,38,225,17,44,46,142,16,5*45
$GNGSA,A,3,05,06,09,11,12,13,19,20,29,,,,0.8,0.6,0.6,1*33
$GNGSA,A,3,19,26,33,,,,,,,,,,0.8,0.6,0.6,3*37
$GNGSA,A,3,07,10,11,12,13,21,22,34,38,43,44,,0.8,0.6,0.6,4*33
$GNGSA,A,3,03,04,,,,,,,,,,,0.8,0.6,0.6,5*3A
$GNVTG,68.9,T,77.9,M,17.2,N,31.9,K,E*38
$GNRMC,031211.00,A,3729.936471,N,12701.854682,E,17.2,68.9,240724,9.0,W,E,V*4B
$GNGGA,031211.00,3729.936471,N,12701.854682,E,6,12,0.6,29.2,M,23.2,M,,*4B
$GPGSV,3,1,09,05,37,263,27,06,49,090,27,09,32,050,20,11,70,357,30,1*61
$GPGSV,3,2,09,12,14,254,30,13,15,189,30,19,26,161,30,20,61,294,29,1*67
$GPGSV,3,3,09,29,13,321,21,1*57
$GPGSV,1,1,03,06,49,090,25,09,32,050,24,11,70,357,27,8*53
$GAGSV,2,1,05,07,19,042,23,19,45,173,24,24,14,285,18,26,28,100,19,7*75
$GAGSV,2,2,05,33,69,047,35,7*4C
$GAGSV,1,1,03,19,45,173,14,26,28,100,16,33,69,047,18,1*42
$GQGSV,1,1,02,03,74,122,30,04,71,161,34,1*66
$GQGSV,1,1,02,03,74,122,17,04,71,161,25,8*6A
$GBGSV,4,1,13,59,45,159,31,44,46,142,27,42,38,225,24,40,46,195,23,1*77
$GBGSV,4,2,13,38,65,311,32,34,75,300,30,21,88,043,33,13,44,279,29,1*7C
$GBGSV,4,3,13,12,72,138,33,11,49,316,23,10,49,231,26,08,51,288,27,1*74
$GBGSV,4,4,13,07,45,212,26,1*47
$GBGSV,2,1,07,21,88,043,33,34,75,300,28,38,65,311,27,40,46,195,22,3*7D
$GBGSV,2,2,07,42,38,225,18,43,26,314,31,44,46,142,29,3*4B
$GBGSV,2,1,07,21,88,043,28,22,32,045,21,34,75,300,28,38,65,311,23,5*7D
$GBGSV,2,2,07,40,46,195,16,42,38,225,17,44,46,142,24,5*44
$GNGSA,A,3,05,06,09,11,12,13,19,20,29,,,,0.8,0.5,0.6,1*30
$GNGSA,A,3,19,26,33,,,,,,,,,,0.8,0.5,0.6,3*34
$GNGSA,A,3,07,10,11,12,13,21,22,34,38,40,43,44,0.8,0.5,0.6,4*34
$GNGSA,A,3,03,04,,,,,,,,,,,0.8,0.5,0.6,5*39
$GNVTG,69.1,T,78.1,M,18.1,N,33.6,K,E*37
$GNRMC,031212.00,A,3729.937910,N,12701.860823,E,18.1,69.1,240724,9.0,W,E,V*44
$GNGGA,031212.00,3729.937910,N,12701.860823,E,6,12,0.5,29.7,M,23.2,M,,*47
$GPGSV,3,1,09,05,37,263,30,06,49,090,25,09,32,050,22,11,70,357,32,1*65
$GPGSV,3,2,09,12,14,254,30,13,15,189,30,19,26,161,31,20,61,294,29,1*66
$GPGSV,3,3,09,29,13,321,21,1*57
$GPGSV,1,1,03,06,49,090,25,09,32,050,18,11,70,357,28,8*53
$GAGSV,2,1,05,07,19,042,23,19,45,173,19,24,14,285,18,26,28,100,19,7*7B
$GAGSV,2,2,05,33,69,047,35,7*4C
$GAGSV,1,1,03,19,45,173,14,26,28,100,16,33,69,047,19,1*43
$GQGSV,1,1,02,03,74,122,28,04,71,161,34,1*6F
$GQGSV,1,1,02,03,74,122,17,04,71,161,24,8*6B
$GBGSV,2,1,06,13,44,279,29,12,72,138,33,11,49,316,21,10,49,231,25,1*7B
$GBGSV,2,2,06,08,51,288,27,07,45,212,26,1*78
$GBGSV,2,1,07,21,88,043,33,34,75,300,29,38,65,311,25,40,46,195,24,3*78
$GBGSV,2,2,07,42,38,225,18,43,26,314,25,44,46,142,30,3*46
$GBGSV,2,1,07,21,88,043,27,22,32,045,21,34,75,300,28,38,65,311,24,5*75
$GBGSV,2,2,07,40,46,195,16,42,38,225,17,44,46,142,23,5*43
$GNGSA,A,3,05,06,09,11,12,13,19,20,29,,,,0.8,0.5,0.6,1*30
$GNGSA,A,3,19,26,33,,,,,,,,,,0.8,0.5,0.6,3*34
$GNGSA,A,3,07,10,11,12,13,21,22,34,38,40,43,44,0.8,0.5,0.6,4*34
$GNGSA,A,3,03,04,,,,,,,,,,,0.8,0.5,0.6,5*39
$GNVTG,69.1,T,78.1,M,19.8,N,36.6,K,E*3A
$GNRMC,031213.00,A,3729.939878,N,12701.867407,E,19.8,69.1,240724,9.0,W,E,V*41
$GNGGA,031213.00,3729.939878,N,12701.867407,E,6,12,0.5,30.3,M,23.2,M,,*46
$GPGSV,3,1,09,05,37,263,28,06,49,090,27,09,32,050,22,11,70,357,31,1*6D
$GPGSV,3,2,09,12,14,254,29,13,15,189,30,19,26,161,32,20,61,294,29,1*6D
$GPGSV,3,3,09,29,13,321,21,1*57
$GPGSV,1,1,03,06,49,090,25,09,32,050,18,11,70,357,27,8*5C
$GAGSV,2,1,06,07,19,042,23,10,15,301,15,19,45,173,26,24,14,285,18,7*70
$GAGSV,2,2,06,26,28,100,19,33,69,047,34,7*79
$GAGSV,1,1,03,19,45,173,14,26,28,100,16,33,69,047,19,1*43
$GQGSV,1,1,02,03,74,122,32,04,71,161,34,1*64
$GQGSV,1,1,02,03,74,122,21,04,71,161,24,8*6E
$GBGSV,2,1,07,14,12,225,18,13,44,279,29,12,72,138,32,11,49,316,21,1*7A
$GBGSV,2,2,07,10,49,231,25,08,51,288,27,07,45,212,21,1*45
$GBGSV,2,1,08,21,88,043,33,22,32,045,17,34,75,300,29,38,65,311,26,3*7F
$GBGSV,2,2,08,40,46,195,24,42,38,225,18,43,26,314,25,44,46,142,30,3*74
$GBGSV,2,1,07,21,88,043,28,22,32,045,21,34,75,300,27,38,65,311,22,5*73
$GBGSV,2,2,07,40,46,195,16,42,38,225,17,44,46,142,21,5*41
$GNGSA,A,3,05,06,09,11,12,13,19,20,29,,,,0.8,0.5,0.6,1*30
$GNGSA,A,3,10,19,26,33,,,,,,,,,0.8,0.5,0.6,3*35
$GNGSA,A,3,07,10,11,12,13,14,21,22,34,38,40,43,0.8,0.5,0.6,4*31
$GNGSA,A,3,03,04,,,,,,,,,,,0.8,0.5,0.6,5*39
$GNVTG,69.0,T,78.0,M,19.9,N,36.8,K,E*35
$GNRMC,031214.00,A,3729.941927,N,12701.873466,E,19.9,69.0,240724,9.0,W,E,V*40
$GNGGA,031214.00,3729.941927,N,12701.873466,E,6,12,0.5,29.8,M,23.2,M,,*44
$GPGSV,3,1,09,05,37,263,25,06,49,090,32,09,32,050,23,11,70,357,31,1*65
$GPGSV,3,2,09,12,14,254,29,13,15,189,30,19,26,161,32,20,61,294,29,1*6D
$GPGSV,3,3,09,29,13,321,21,1*57
$GPGSV,1,1,03,06,49,090,29,09,32,050,18,11,70,357,26,8*51
$GAGSV,2,1,06,07,19,042,23,10,15,301,15,19,45,173,27,24,14,285,18,7*71
$GAGSV,2,2,06,26,28,100,19,33,69,047,35,7*78
$GAGSV,1,1,03,19,45,173,14,26,28,100,16,33,69,047,19,1*43
$GQGSV,1,1,02,03,74,122,31,04,71,161,32,1*61
$GQGSV,1,1,02,03,74,122,21,04,71,161,22,8*68
$GBGSV,2,1,07,14,12,225,18,13,44,279,29,12,72,138,29,11,49,316,21,1*70
$GBGSV,2,2,07,10,49,231,22,08,51,288,27,07,45,212,21,1*42
$GBGSV,2,1,08,21,88,043,34,22,32,045,24,34,75,300,29,38,65,311,26,3*78
$GBGSV,2,2,08,40,46,195,26,42,38,225,18,43,26,314,26,44,46,142,30,3*75
$GBGSV,2,1,07,21,88,043,28,22,32,045,21,34,75,300,28,38,65,311,23,5*7D
$GBGSV,2,2,07,40,46,195,16,42,38,225,17,44,46,142,21,5*41
$GNGSA,A,3,05,06,09,11,12,13,19,20,29,,,,0.8,0.5,0.6,1*30
$GNGSA,A,3,10,19,26,33,,,,,,,,,0.8,0.5,0.6,3*35
$GNGSA,A,3,07,10,11,12,13,14,21,22,34,38,40,43,0.8,0.5,0.6,4*31
$GNGSA,A,3,03,04,,,,,,,,,,,0.8,0.5,0.6,5*39
$GNVTG,69.0,T,78.0,M,20.3,N,37.7,K,E*3B
$GNRMC,031215.00,A,3729.943931,N,12701.880354,E,20.3,69.0,240724,9.0,W,E,V*4E
$GNGGA,031215.00,3729.943931,N,12701.880354,E,6,12,0.5,30.4,M,23.2,M,,*4E
$GPGSV,3,1,09,05,37,263,22,06,49,090,35,09,32,050,23,11,70,357,30,1*64
$GPGSV,3,2,09,12,14,254,29,13,15,189,30,19,26,161,32,20,61,294,29,1*6D
$GPGSV,3,3,09,29,13,321,21,1*57
$GPGSV,1,1,03,06,49,090,32,09,32,050,18,11,70,357,27,8*5A
$GAGSV,2,1,06,07,19,042,23,10,15,301,15,19,45,173,26,24,14,285,18,7*70
$GAGSV,2,2,06,26,28,100,19,33,69,047,31,7*7C
$GAGSV,1,1,03,19,45,173,14,26,28,100,16,33,69,047,19,1*43
$GQGSV,1,1,02,03,74,122,30,04,71,161,32,1*60
$GQGSV,1,1,02,03,74,122,21,04,71,161,22,8*68
$GBGSV,2,1,07,14,12,225,18,13,44,279,22,12,72,138,30,11,49,316,23,1*71
$GBGSV,2,2,07,10,49,231,24,08,51,288,22,07,45,212,21,1*41
$GBGSV,2,1,08,21,88,043,30,22,32,045,24,34,75,300,29,38,65,311,28,3*72
$GBGSV,2,2,08,40,46,195,26,42,38,225,18,43,26,314,23,44,46,142,21,3*70
$GBGSV,2,1,06,21,88,043,27,22,32,045,21,34,75,300,28,38,65,311,21,5*71
$GBGSV,2,2,06,42,38,225,20,44,46,142,21,5*78
$GNGSA,A,3,05,06,09,11,12,13,19,20,,,,,0.8,0.5,0.6,1*3B
$GNGSA,A,3,10,19,26,33,,,,,,,,,0.8,0.5,0.6,3*35
$GNGSA,A,3,07,10,11,12,13,14,21,22,34,38,40,42,0.8,0.5,0.6,4*30
$GNGSA,A,3,03,04,,,,,,,,,,,0.8,0.5,0.6,5*39
$GNVTG,69.0,T,78.0,M,21.0,N,38.8,K,E*39
$GNRMC,031216.00,A,3729.945906,N,12701.887276,E,21.0,69.0,240724,9.0,W,E,V*4B
$GNGGA,031216.00,3729.945906,N,12701.887276,E,6,12,0.5,30.6,M,23.2,M,,*4B
$GPGSV,3,1,09,05,37,263,22,06,49,090,35,09,32,050,24,11,70,357,32,1*61
$GPGSV,3,2,09,12,14,254,28,13,15,189,30,19,26,161,26,20,61,294,31,1*60
$GPGSV,3,3,09,29,13,321,21,1*57
$GPGSV,1,1,03,06,49,090,31,09,32,050,18,11,70,357,26,8*58
$GAGSV,2,1,06,07,19,042,23,10,15,301,15,19,45,173,26,24,14,285,18,7*70
$GAGSV,2,2,06,26,28,100,19,33,69,047,31,7*7C
$GAGSV,1,1,02,26,28,100,16,33,69,047,19,1*7B
$GQGSV,1,1,02,03,74,122,30,04,71,161,23,1*60
$GQGSV,1,1,02,03,74,122,20,04,71,161,22,8*69
$GBGSV,2,1,07,14,12,225,18,13,44,279,22,12,72,138,30,11,49,316,23,1*71
$GBGSV,2,2,07,10,49,231,24,08,51,288,26,07,45,212,21,1*45
$GBGSV,2,1,08,21,88,043,29,22,32,045,24,34,75,300,29,38,65,311,32,3*71
$GBGSV,2,2,08,40,46,195,22,42,38,225,18,43,26,314,23,44,46,142,21,3*74
$GBGSV,2,1,06,21,88,043,28,22,32,045,21,34,75,300,28,38,65,311,23,5*7C
$GBGSV,2,2,06,42,38,225,20,44,46,142,21,5*78
$GNGSA,A,3,05,06,09,11,12,19,20,,,,,,0.8,0.6,0.6,1*3A
$GNGSA,A,3,10,19,26,33,,,,,,,,,0.8,0.6,0.6,3*36
$GNGSA,A,3,07,10,11,12,13,14,21,22,34,38,40,42,0.8,0.6,0.6,4*33
$GNGSA,A,3,03,04,,,,,,,,,,,0.8,0.6,0.6,5*3A
$GNVTG,69.2,T,78.2,M,20.8,N,38.6,K,E*3E
$GNRMC,031217.00,A,3729.948022,N,12701.894177,E,20.8,69.2,240724,9.0,W,E,V*43
$GNGGA,031217.00,3729.948022,N,12701.894177,E,6,12,0.6,31.3,M,23.2,M,,*4F
$GPGSV,3,1,09,05,37,263,22,06,49,090,26,09,32,050,29,11,70,357,33,1*6F
$GPGSV,3,2,09,12,14,254,28,13,15,189,30,19,26,161,26,20,61,294,31,1*60
$GPGSV,3,3,09,29,13,321,21,1*57
$GPGSV,1,1,03,06,49,090,26,09,32,050,16,11,70,357,26,8*50
$GAGSV,2,1,06,07,19,042,23,10,15,301,15,19,45,173,26,24,14,285,18,7*70
$GAGSV,2,2,06,26,28,100,19,33,69,047,30,7*7D
$GAGSV,1,1,02,26,28,100,16,33,69,047,19,1*7B
$GQGSV,1,1,02,03,74,122,30,04,71,161,24,1*67
$GQGSV,1,1,02,03,74,122,20,04,71,161,22,8*69
$GBGSV,2,1,07,14,12,225,18,13,44,279,28,12,72,138,29,11,49,316,25,1*75
$GBGSV,2,2,07,10,49,231,24,08,51,288,26,07,45,212,27,1*43
$GBGSV,2,1,08,21,88,043,30,22,32,045,20,34,75,300,29,38,65,311,32,3*7D
$GBGSV,2,2,08,40,46,195,25,42,38,225,16,43,26,314,20,44,46,142,21,3*7E
$GBGSV,2,1,06,21,88,043,28,22,32,045,21,34,75,300,28,38,65,311,23,5*7C
$GBGSV,2,2,06,42,38,225,20,44,46,142,17,5*7D
$GNGSA,A,3,05,06,09,11,12,19,20,,,,,,0.8,0.6,0.6,1*3A
$GNGSA,A,3,10,19,26,33,,,,,,,,,0.8,0.6,0.6,3*36
$GNGSA,A,3,07,10,11,12,13,14,21,22,34,38,40,42,0.8,0.6,0.6,4*33
$GNGSA,A,3,03,04,,,,,,,,,,,0.8,0.6,0.6,5*3A
$GNVTG,69.4,T,78.4,M,21.1,N,39.1,K,E*30
$GNRMC,031218.00,A,3729.949841,N,12701.901296,E,21.1,69.4,240724,9.0,W,E,V*4F
$GNGGA,031218.00,3729.949841,N,12701.901296,E,6,12,0.6,31.7,M,23.2,M,,*49
$GPGSV,3,1,09,05,37,263,24,06,49,090,28,09,32,050,28,11,70,357,34,1*61
$GPGSV,3,2,09,12,14,254,28,13,15,189,30,19,26,161,26,20,61,294,27,1*67
$GPGSV,3,3,09,29,13,321,21,1*57
$GPGSV,1,1,03,06,49,090,24,09,32,050,22,11,70,357,27,8*54
$GAGSV,2,1,06,07,19,042,23,10,15,301,15,19,45,173,19,24,14,285,18,7*7C
$GAGSV,2,2,06,26,28,100,19,33,69,047,30,7*7D
$GAGSV,1,1,02,26,28,100,16,33,69,047,19,1*7B
$GQGSV,1,1,02,03,74,122,29,04,71,161,24,1*6F
$GQGSV,1,1,02,03,74,122,20,04,71,161,22,8*69
$GBGSV,2,1,07,14,12,225,18,13,44,279,30,12,72,138,30,11,49,316,23,1*72
$GBGSV,2,2,07,10,49,231,23,08,51,288,24,07,45,212,27,1*46
$GBGSV,2,1,08,21,88,043,31,22,32,045,28,34,75,300,28,38,65,311,27,3*71
$GBGSV,2,2,08,40,46,195,25,42,38,225,16,43,26,314,20,44,46,142,25,3*7A
$GBGSV,2,1,06,21,88,043,27,22,32,045,21,34,75,300,27,38,65,311,23,5*7C
$GBGSV,2,2,06,42,38,225,20,44,46,142,21,5*78
$GNGSA,A,3,05,06,09,11,12,19,20,,,,,,0.8,0.5,0.6,1*39
$GNGSA,A,3,10,19,26,33,,,,,,,,,0.8,0.5,0.6,3*35
$GNGSA,A,3,07,10,11,12,13,14,21,22,34,38,40,42,0.8,0.5,0.6,4*30
$GNGSA,A,3,03,04,,,,,,,,,,,0.8,0.5,0.6,5*39
$GNVTG,69.5,T,78.5,M,20.0,N,37.0,K,E*3F
$GNRMC,031219.00,A,3729.951543,N,12701.907771,E,20.0,69.5,240724,9.0,W,E,V*43
$GNGGA,031219.00,3729.951543,N,12701.907771,E,6,12,0.5,32.4,M,23.2,M,,*47
$GPGSV,3,1,09,05,37,263,26,06,49,090,32,09,32,050,23,11,70,357,31,1*66
$GPGSV,3,2,09,12,14,254,28,13,15,189,30,19,26,161,26,20,61,294,32,1*63
$GPGSV,3,3,09,29,13,321,21,1*57
$GPGSV,1,1,03,06,49,090,29,09,32,050,22,11,70,357,28,8*56
$GAGSV,2,1,06,07,19,042,23,10,15,301,15,19,45,173,22,24,14,285,18,7*74
$GAGSV,2,2,06,26,28,100,17,33,69,047,30,7*73
$GAGSV,1,1,02,26,28,100,16,33,69,047,20,1*71
$GQGSV,1,1,02,03,74,122,29,04,71,161,24,1*6F
$GQGSV,1,1,02,03,74,122,20,04,71,161,22,8*69
$GBGSV,2,1,07,14,12,225,18,13,44,279,24,12,72,138,33,11,49,316,26,1*71
$GBGSV,2,2,07,10,49,231,24,08,51,288,25,07,45,212,27,1*40
$GBGSV,2,1,08,21,88,043,30,22,32,045,27,34,75,300,30,38,65,311,30,3*70
$GBGSV,2,2,08,40,46,195,25,42,38,225,16,43,26,314,25,44,46,142,30,3*7B
$GBGSV,2,1,06,21,88,043,27,22,32,045,21,34,75,300,27,38,65,311,21,5*7E
$GBGSV,2,2,06,42,38,225,20,44,46,142,22,5*7B
$GNGSA,A,3,05,06,09,11,12,19,20,,,,,,0.9,0.6,0.7,1*3A
$GNGSA,A,3,19,26,33,,,,,,,,,,0.9,0.6,0.7,3*37
$GNGSA,A,3,07,10,11,12,13,21,22,34,38,40,42,43,0.9,0.6,0.7,4*31
$GNGSA,A,3,03,04,,,,,,,,,,,0.9,0.6,0.7,5*3A
$GNVTG,69.4,T,78.4,M,19.9,N,36.9,K,E*34
$GNRMC,031220.00,A,3729.953310,N,12701.914328,E,19.9,69.4,240724,9.0,W,E,V*43
$GNGGA,031220.00,3729.953310,N,12701.914328,E,6,12,0.6,32.6,M,23.2,M,,*44
$GPGSV,3,1,09,05,37,263,26,06,49,090,34,09,32,050,23,11,70,357,30,1*61
$GPGSV,3,2,09,12,14,254,24,13,15,189,30,19,26,161,21,20,61,294,33,1*69
$GPGSV,3,3,09,29,13,321,21,1*57
$GPGSV,1,1,03,06,49,090,32,09,32,050,22,11,70,357,27,8*53
$GAGSV,2,1,06,07,19,042,23,10,15,301,15,19,45,173,25,24,14,285,18,7*73
$GAGSV,2,2,06,26,28,100,17,33,69,047,32,7*71
$GAGSV,1,1,02,26,28,100,16,33,69,047,20,1*71
$GQGSV,1,1,02,03,74,122,30,04,71,161,29,1*6A
$GQGSV,1,1,02,03,74,122,19,04,71,161,16,8*64
$GBGSV,2,1,07,14,12,225,18,13,44,279,31,12,72,138,34,11,49,316,24,1*70
$GBGSV,2,2,07,10,49,231,25,08,51,288,27,07,45,212,27,1*43
$GBGSV,2,1,08,21,88,043,28,22,32,045,23,34,75,300,28,38,65,311,30,3*74
$GBGSV,2,2,08,40,46,195,25,42,38,225,16,43,26,314,25,44,46,142,27,3*7D
$GBGSV,2,1,06,21,88,043,27,22,32,045,13,34,75,300,26,38,65,311,23,5*7C
$GBGSV,2,2,06,42,38,225,20,44,46,142,22,5*7B
$GNGSA,A,3,05,06,09,11,12,19,20,,,,,,0.9,0.6,0.7,1*3A
$GNGSA,A,3,19,26,33,,,,,,,,,,0.9,0.6,0.7,3*37
$GNGSA,A,3,07,10,11,12,13,21,22,34,38,40,42,43,0.9,0.6,0.7,4*31
$GNGSA,A,3,03,04,,,,,,,,,,,0.9,0.6,0.7,5*3A
$GNVTG,69.4,T,78.4,M,20.9,N,38.7,K,E*3E
$GNRMC,031221.00,A,3729.955617,N,12701.921225,E,20.9,69.4,240724,9.0,W,E,V*46
$GNGGA,031221.00,3729.955617,N,12701.921225,E,6,12,0.6,33.1,M,23.2,M,,*4D
$GPGSV,3,1,10,05,37,263,24,06,49,090,33,09,32,050,24,11,70,357,29,1*63
$GPGSV,3,2,10,12,14,254,27,13,15,189,30,17,05,156,19,19,26,161,25,1*65
$GPGSV,3,3,10,20,61,294,31,29,13,321,21,1*67
$GPGSV,1,1,03,06,49,090,31,09,32,050,17,11,70,357,27,8*56
$GAGSV,2,1,06,07,19,042,14,10,15,301,15,19,45,173,29,24,14,285,18,7*7B
$GAGSV,2,2,06,26,28,100,17,33,69,047,30,7*73
$GAGSV,1,1,02,26,28,100,16,33,69,047,21,1*70
$GQGSV,1,1,02,03,74,122,32,04,71,161,32,1*62
$GQGSV,1,1,02,03,74,122,20,04,71,161,22,8*69
$GBGSV,2,1,07,14,12,225,18,13,44,279,32,12,72,138,33,11,49,316,24,1*74
$GBGSV,2,2,07,10,49,231,25,08,51,288,26,07,45,212,27,1*42
$GBGSV,2,1,08,21,88,043,29,22,32,045,25,34,75,300,26,38,65,311,28,3*74
$GBGSV,2,2,08,40,46,195,25,42,38,225,16,43,26,314,25,44,46,142,25,3*7F
$GBGSV,2,1,06,21,88,043,27,22,32,045,13,34,75,300,27,38,65,311,24,5*7A
$GBGSV,2,2,06,42,38,225,20,44,46,142,25,5*7C
$GNGSA,A,3,05,06,09,11,12,17,19,20,,,,,0.8,0.6,0.6,1*3C
$GNGSA,A,3,07,19,26,33,,,,,,,,,0.8,0.6,0.6,3*30
$GNGSA,A,3,07,10,11,12,13,21,22,34,38,40,43,44,0.8,0.6,0.6,4*37
$GNGSA,A,3,03,04,,,,,,,,,,,0.8,0.6,0.6,5*3A
$GNVTG,69.5,T,78.5,M,21.0,N,38.9,K,E*38
$GNRMC,031222.00,A,3729.957468,N,12701.927907,E,21.0,69.5,240724,9.0,W,E,V*49
$GNGGA,031222.00,3729.957468,N,12701.927907,E,6,12,0.6,33.9,M,23.2,M,,*43
$GPGSV,3,1,10,05,37,263,24,06,49,090,34,09,32,050,24,11,70,357,31,1*6D
$GPGSV,3,2,10,12,14,254,25,13,15,189,30,17,05,156,19,19,26,161,26,1*64
$GPGSV,3,3,10,20,61,294,31,29,13,321,21,1*67
$GPGSV,1,1,03,06,49,090,31,09,32,050,17,11,70,357,27,8*56
$GAGSV,2,1,06,07,19,042,14,10,15,301,15,19,45,173,29,24,14,285,14,7*77
$GAGSV,2,2,06,26,28,100,17,33,69,047,26,7*74
$GAGSV,1,1,02,26,28,100,16,33,69,047,21,1*70
$GQGSV,1,1,02,03,74,122,31,04,71,161,32,1*61
$GQGSV,1,1,02,03,74,122,20,04,71,161,22,8*69
$GBGSV,2,1,07,14,12,225,18,13,44,279,33,12,72,138,33,11,49,316,24,1*75
$GBGSV,2,2,07,10,49,231,26,08,51,288,28,07,45,212,27,1*4F
$GBGSV,2,1,08,21,88,043,30,22,32,045,22,34,75,300,25,38,65,311,27,3*77
$GBGSV,2,2,08,40,46,195,25,42,38,225,16,43,26,314,25,44,46,142,25,3*7F
$GBGSV,2,1,06,21,88,043,27,22,32,045,13,34,75,300,26,38,65,311,22,5*7D
$GBGSV,2,2,06,42,38,225,20,44,46,142,22,5*7B
$GNGSA,A,3,05,06,09,11,12,17,19,20,,,,,0.8,0.6,0.6,1*3C
$GNGSA,A,3,07,19,26,33,,,,,,,,,0.8,0.6,0.6,3*30
$GNGSA,A,3,07,10,11,12,13,21,22,34,38,40,43,44,0.8,0.6,0.6,4*37
$GNGSA,A,3,03,04,,,,,,,,,,,0.8,0.6,0.6,5*3A
$GNVTG,69.4,T,78.4,M,20.2,N,37.4,K,E*39
$GNRMC,031223.00,A,3729.959496,N,12701.934338,E,20.2,69.4,240724,9.0,W,E,V*41
$GNGGA,031223.00,3729.959496,N,12701.934338,E,6,12,0.6,34.3,M,23.2,M,,*44
$GPGSV,3,1,10,05,37,263,25,06,49,090,34,09,32,050,24,11,70,357,30,1*6D
$GPGSV,3,2,10,12,14,254,24,13,15,189,30,17,05,156,19,19,26,161,26,1*65
$GPGSV,3,3,10,20,61,294,28,29,13,321,21,1*6F
$GPGSV,1,1,03,06,49,090,31,09,32,050,17,11,70,357,22,8*53
$GAGSV,2,1,06,07,19,042,14,10,15,301,15,19,45,173,24,24,14,285,14,7*7A
$GAGSV,2,2,06,26,28,100,17,33,69,047,28,7*7A
$GAGSV,1,1,02,26,28,100,16,33,69,047,19,1*7B
$GQGSV,1,1,02,03,74,122,31,04,71,161,22,1*60
$GQGSV,1,1,02,03,74,122,18,04,71,161,22,8*62
$GBGSV,2,1,07,14,12,225,18,13,44,279,30,12,72,138,33,11,49,316,24,1*76
$GBGSV,2,2,07,10,49,231,26,08,51,288,26,07,45,212,21,1*47
$GBGSV,2,1,08,21,88,043,30,22,32,045,21,34,75,300,26,38,65,311,23,3*73
$GBGSV,2,2,08,40,46,195,20,42,38,225,16,43,26,314,25,44,46,142,23,3*7C
$GBGSV,2,1,06,21,88,043,27,22,32,045,18,34,75,300,26,38,65,311,22,5*76
$GBGSV,2,2,06,42,38,225,20,44,46,142,22,5*7B
$GNGSA,A,3,05,06,09,11,12,17,19,20,,,,,0.8,0.5,0.6,1*3F
$GNGSA,A,3,07,19,26,33,,,,,,,,,0.8,0.5,0.6,3*33
$GNGSA,A,3,07,10,11,12,13,21,22,34,38,40,43,44,0.8,0.5,0.6,4*34
$GNGSA,A,3,03,04,,,,,,,,,,,0.8,0.5,0.6,5*39
$GNVTG,69.3,T,78.3,M,20.1,N,37.3,K,E*3D
$GNRMC,031224.00,A,3729.961453,N,12701.940717,E,20.1,69.3,240724,9.0,W,E,V*4A
$GNGGA,031224.00,3729.961453,N,12701.940717,E,6,12,0.5,34.1,M,23.2,M,,*4A
$GPGSV,3,1,10,05,37,263,27,06,49,090,23,09,32,050,23,11,70,357,30,1*6E
$GPGSV,3,2,10,12,14,254,26,13,15,189,30,17,05,156,19,19,26,161,22,1*63
$GPGSV,3,3,10,20,61,294,31,29,13,321,21,1*67
$GPGSV,1,1,03,06,49,090,31,09,32,050,17,11,70,357,22,8*53
$GAGSV,2,1,06,07,19,042,14,10,15,301,15,19,45,173,22,24,14,285,14,7*7C
$GAGSV,2,2,06,26,28,100,17,33,69,047,30,7*73
$GAGSV,1,1,02,26,28,100,16,33,69,047,19,1*7B
$GQGSV,1,1,02,03,74,122,29,04,71,161,31,1*6B
$GQGSV,1,1,02,03,74,122,21,04,71,161,19,8*60
$GBGSV,2,1,07,14,12,225,18,13,44,279,30,12,72,138,34,11,49,316,24,1*71
$GBGSV,2,2,07,10,49,231,25,08,51,288,23,07,45,212,21,1*41
$GBGSV,2,1,08,21,88,043,28,22,32,045,21,34,75,300,26,38,65,311,26,3*7F
$GBGSV,2,2,08,40,46,195,20,42,38,225,16,43,26,314,25,44,46,142,24,3*7B
$GBGSV,2,1,06,21,88,043,27,22,32,045,18,34,75,300,28,38,65,311,22,5*78
$GBGSV,2,2,06,42,38,225,20,44,46,142,22,5*7B
$GNGSA,A,3,05,06,09,11,12,17,19,20,,,,,0.8,0.5,0.6,1*3F
$GNGSA,A,3,07,19,26,33,,,,,,,,,0.8,0.5,0.6,3*33
$GNGSA,A,3,07,10,11,12,13,21,22,34,38,40,43,44,0.8,0.5,0.6,4*34
$GNGSA,A,3,03,04,,,,,,,,,,,0.8,0.5,0.6,5*39
$GNVTG,69.4,T,78.4,M,20.6,N,38.1,K,E*37
$GNRMC,031225.00,A,3729.963323,N,12701.947511,E,20.6,69.4,240724,9.0,W,E,V*4A
$GNGGA,031225.00,3729.963323,N,12701.947511,E,6,12,0.5,34.5,M,23.2,M,,*4E
$GPGSV,3,1,10,05,37,263,29,06,49,090,22,09,32,050,26,11,70,357,30,1*64
$GPGSV,3,2,10,12,14,254,26,13,15,189,30,17,05,156,19,19,26,161,25,1*64
$GPGSV,3,3,10,20,61,294,29,29,13,321,21,1*6E
$GPGSV,1,1,03,06,49,090,31,09,32,050,17,11,70,357,22,8*53
$GAGSV,2,1,06,07,19,042,14,10,15,301,17,19,45,173,23,24,14,285,14,7*7F
$GAGSV,2,2,06,26,28,100,17,33,69,047,26,7*74
$GAGSV,1,1,02,26,28,100,16,33,69,047,19,1*7B
$GQGSV,1,1,02,03,74,122,32,04,71,161,32,1*62
$GQGSV,1,1,02,03,74,122,21,04,71,161,23,8*69
$GBGSV,2,1,07,14,12,225,18,13,44,279,30,12,72,138,33,11,49,316,24,1*76
$GBGSV,2,2,07,10,49,231,25,08,51,288,23,07,45,212,21,1*41
$GBGSV,2,1,08,21,88,043,29,22,32,045,19,34,75,300,25,38,65,311,24,3*74
$GBGSV,2,2,08,40,46,195,20,42,38,225,16,43,26,314,25,44,46,142,32,3*7C
$GBGSV,2,1,06,21,88,043,28,22,32,045,18,34,75,300,26,38,65,311,23,5*78
$GBGSV,2,2,06,42,38,225,20,44,46,142,21,5*78
$GNGSA,A,3,05,06,09,11,12,17,19,20,,,,,0.8,0.6,0.6,1*3C
$GNGSA,A,3,07,19,33,,,,,,,,,,0.8,0.6,0.6,3*34
$GNGSA,A,3,07,10,11,12,13,21,22,34,38,40,44,,0.8,0.6,0.6,4*30
$GNGSA,A,3,03,04,,,,,,,,,,,0.8,0.6,0.6,5*3A
$GNVTG,69.4,T,78.4,M,22.3,N,41.3,K,E*3C
$GNRMC,031226.00,A,3729.965642,N,12701.955053,E,22.3,69.4,240724,9.0,W,E,V*4A
$GNGGA,031226.00,3729.965642,N,12701.955053,E,6,12,0.6,34.8,M,23.2,M,,*47
